time,ns,id,type,action,pose.position.x,pose.position.y,pose.position.z,pose.orientation.x,pose.orientation.y,pose.orientation.z,pose.orientation.w,scale.x,scale.y,scale.z,color.r,color.g,color.b,color.a,lifetime.sec,lifetime.nanosec,frame_locked,points[0].x,points[0].y,points[0].z,points[1].x,points[1].y,points[1].z,points[2].x,points[2].y,points[2].z,texture_resource,texture.header.stamp.sec,texture.header.stamp.nanosec,texture.header.frame_id,texture.format,text,mesh_resource,mesh_file.filename,mesh_use_embedded_materials
1.9093198776245117,robot_triangle,0,11,0,-7.336207776614426,-30.2862540602245,1.0,0.0,0.0,-0.5653905443917386,0.8248233340009322,1.0,1.0,1.0,0.0,0.0,1.0,1.0,0,0,False,0.3,0.0,0.0,-0.2,0.15,0.0,-0.2,-0.15,0.0,,0,0,,,,,,False
2.277588367462158,robot_triangle,0,11,0,-7.316662035500407,-30.241981434532388,1.0,0.0,0.0,-0.5396360916622257,0.841898383758704,1.0,1.0,1.0,0.0,0.0,1.0,1.0,0,0,False,0.3,0.0,0.0,-0.2,0.15,0.0,-0.2,-0.15,0.0,,0,0,,,,,,False
2.486201524734497,robot_triangle,0,11,0,-7.308800037702203,-30.20651200681702,1.0,0.0,0.0,-0.5155065594598409,0.8568856324818835,1.0,1.0,1.0,0.0,0.0,1.0,1.0,0,0,False,0.3,0.0,0.0,-0.2,0.15,0.0,-0.2,-0.15,0.0,,0,0,,,,,,False
2.8518683910369873,robot_triangle,0,11,0,-7.309329200521799,-30.171527678291998,1.0,0.0,0.0,-0.496985145767527,0.8677590477122263,1.0,1.0,1.0,0.0,0.0,1.0,1.0,0,0,False,0.3,0.0,0.0,-0.2,0.15,0.0,-0.2,-0.15,0.0,,0,0,,,,,,False
2.9858338832855225,robot_triangle,0,11,0,-7.309341324692056,-30.137377051002254,1.0,0.0,0.0,-0.4777940710749075,0.878471869581301,1.0,1.0,1.0,0.0,0.0,1.0,1.0,0,0,False,0.3,0.0,0.0,-0.2,0.15,0.0,-0.2,-0.15,0.0,,0,0,,,,,,False
3.1183156967163086,robot_triangle,0,11,0,-7.302784710647012,-30.11460335724196,1.0,0.0,0.0,-0.4628258750816544,0.8864492141994943,1.0,1.0,1.0,0.0,0.0,1.0,1.0,0,0,False,0.3,0.0,0.0,-0.2,0.15,0.0,-0.2,-0.15,0.0,,0,0,,,,,,False
3.3300135135650635,robot_triangle,0,11,0,-7.302656229357602,-30.09207793581206,1.0,0.0,0.0,-0.4440264215312286,0.896013692407751,1.0,1.0,1.0,0.0,0.0,1.0,1.0,0,0,False,0.3,0.0,0.0,-0.2,0.15,0.0,-0.2,-0.15,0.0,,0,0,,,,,,False
3.518527030944824,robot_triangle,0,11,0,-7.302450559046366,-30.0474738064449,1.0,0.0,0.0,-0.40149432356602444,0.9158615114438757,1.0,1.0,1.0,0.0,0.0,1.0,1.0,0,0,False,0.3,0.0,0.0,-0.2,0.15,0.0,-0.2,-0.15,0.0,,0,0,,,,,,False
3.8290646076202393,robot_triangle,0,11,0,-7.277973526833575,-29.97161465480775,1.0,0.0,0.0,-0.3086554172850384,0.9511739238333854,1.0,1.0,1.0,0.0,0.0,1.0,1.0,0,0,False,0.3,0.0,0.0,-0.2,0.15,0.0,-0.2,-0.15,0.0,,0,0,,,,,,False
4.16554594039917,robot_triangle,0,11,0,-7.242484588319212,-29.87272799193065,1.0,0.0,0.0,-0.20052622793142505,0.9796883340693581,1.0,1.0,1.0,0.0,0.0,1.0,1.0,0,0,False,0.3,0.0,0.0,-0.2,0.15,0.0,-0.2,-0.15,0.0,,0,0,,,,,,False
4.326841354370117,robot_triangle,0,11,0,-7.233462007035929,-29.749651680804323,1.0,0.0,0.0,-0.07728545879261614,0.9970090059067745,1.0,1.0,1.0,0.0,0.0,1.0,1.0,0,0,False,0.3,0.0,0.0,-0.2,0.15,0.0,-0.2,-0.15,0.0,,0,0,,,,,,False
4.5932652950286865,robot_triangle,0,11,0,-7.2412287474683055,-29.636460577319777,1.0,0.0,0.0,0.06512702693113122,0.9978769815779457,1.0,1.0,1.0,0.0,0.0,1.0,1.0,0,0,False,0.3,0.0,0.0,-0.2,0.15,0.0,-0.2,-0.15,0.0,,0,0,,,,,,False
4.8686535358428955,robot_triangle,0,11,0,-7.268025731860176,-29.52296371130412,1.0,0.0,0.0,0.19290043723899022,0.9812183351899854,1.0,1.0,1.0,0.0,0.0,1.0,1.0,0,0,False,0.3,0.0,0.0,-0.2,0.15,0.0,-0.2,-0.15,0.0,,0,0,,,,,,False
5.1053996086120605,robot_triangle,0,11,0,-7.260308027284898,-29.427828824751337,1.0,0.0,0.0,0.29123983541580417,0.9566500709595831,1.0,1.0,1.0,0.0,0.0,1.0,1.0,0,0,False,0.3,0.0,0.0,-0.2,0.15,0.0,-0.2,-0.15,0.0,,0,0,,,,,,False
5.321941375732422,robot_triangle,0,11,0,-7.2207717433442165,-29.31677918348161,1.0,0.0,0.0,0.3731356534013949,0.9277767965198925,1.0,1.0,1.0,0.0,0.0,1.0,1.0,0,0,False,0.3,0.0,0.0,-0.2,0.15,0.0,-0.2,-0.15,0.0,,0,0,,,,,,False
5.597097635269165,robot_triangle,0,11,0,-7.166185728953187,-29.203777768163174,1.0,0.0,0.0,0.43238871259661227,0.9016873078950619,1.0,1.0,1.0,0.0,0.0,1.0,1.0,0,0,False,0.3,0.0,0.0,-0.2,0.15,0.0,-0.2,-0.15,0.0,,0,0,,,,,,False
5.813116073608398,robot_triangle,0,11,0,-7.106360761718339,-29.079267300032953,1.0,0.0,0.0,0.4693703549664108,0.8830013985712059,1.0,1.0,1.0,0.0,0.0,1.0,1.0,0,0,False,0.3,0.0,0.0,-0.2,0.15,0.0,-0.2,-0.15,0.0,,0,0,,,,,,False
6.13865065574646,robot_triangle,0,11,0,-7.022130700938896,-28.935898945438133,1.0,0.0,0.0,0.49423270396180297,0.8693296465292121,1.0,1.0,1.0,0.0,0.0,1.0,1.0,0,0,False,0.3,0.0,0.0,-0.2,0.15,0.0,-0.2,-0.15,0.0,,0,0,,,,,,False
6.364162921905518,robot_triangle,0,11,0,-6.922505145170144,-28.770847064601657,1.0,0.0,0.0,0.507252716065138,0.8617973555567112,1.0,1.0,1.0,0.0,0.0,1.0,1.0,0,0,False,0.3,0.0,0.0,-0.2,0.15,0.0,-0.2,-0.15,0.0,,0,0,,,,,,False
6.612595319747925,robot_triangle,0,11,0,-6.807743970214091,-28.605463981217493,1.0,0.0,0.0,0.5078551622045622,0.8614424729615889,1.0,1.0,1.0,0.0,0.0,1.0,1.0,0,0,False,0.3,0.0,0.0,-0.2,0.15,0.0,-0.2,-0.15,0.0,,0,0,,,,,,False
6.91496467590332,robot_triangle,0,11,0,-6.6995695376514615,-28.43961265595471,1.0,0.0,0.0,0.4997454300140872,0.8661723299552088,1.0,1.0,1.0,0.0,0.0,1.0,1.0,0,0,False,0.3,0.0,0.0,-0.2,0.15,0.0,-0.2,-0.15,0.0,,0,0,,,,,,False
7.193797826766968,robot_triangle,0,11,0,-6.584409269663977,-28.26516588329578,1.0,0.0,0.0,0.4906112053467377,0.8713785888970541,1.0,1.0,1.0,0.0,0.0,1.0,1.0,0,0,False,0.3,0.0,0.0,-0.2,0.15,0.0,-0.2,-0.15,0.0,,0,0,,,,,,False
7.385431289672852,robot_triangle,0,11,0,-6.4588860236196535,-28.109123038661664,1.0,0.0,0.0,0.4788419248575871,0.87790113964995,1.0,1.0,1.0,0.0,0.0,1.0,1.0,0,0,False,0.3,0.0,0.0,-0.2,0.15,0.0,-0.2,-0.15,0.0,,0,0,,,,,,False
7.5533857345581055,robot_triangle,0,11,0,-6.352243899210901,-27.96147329841744,1.0,0.0,0.0,0.4692249322144554,0.8830786844830645,1.0,1.0,1.0,0.0,0.0,1.0,1.0,0,0,False,0.3,0.0,0.0,-0.2,0.15,0.0,-0.2,-0.15,0.0,,0,0,,,,,,False
7.7950828075408936,robot_triangle,0,11,0,-6.227702969995399,-27.800570822847238,1.0,0.0,0.0,0.4609260104564623,0.8874385685131615,1.0,1.0,1.0,0.0,0.0,1.0,1.0,0,0,False,0.3,0.0,0.0,-0.2,0.15,0.0,-0.2,-0.15,0.0,,0,0,,,,,,False
8.111558675765991,robot_triangle,0,11,0,-6.112412373459922,-27.656839096483914,1.0,0.0,0.0,0.4545744531368535,0.8907087439535611,1.0,1.0,1.0,0.0,0.0,1.0,1.0,0,0,False,0.3,0.0,0.0,-0.2,0.15,0.0,-0.2,-0.15,0.0,,0,0,,,,,,False
8.402761697769165,robot_triangle,0,11,0,-5.994765737369889,-27.522023073739536,1.0,0.0,0.0,0.44895242494713605,0.8935556614638431,1.0,1.0,1.0,0.0,0.0,1.0,1.0,0,0,False,0.3,0.0,0.0,-0.2,0.15,0.0,-0.2,-0.15,0.0,,0,0,,,,,,False
8.57805061340332,robot_triangle,0,11,0,-5.8858344939833245,-27.389838335078135,1.0,0.0,0.0,0.4441809970370987,0.8959370747274213,1.0,1.0,1.0,0.0,0.0,1.0,1.0,0,0,False,0.3,0.0,0.0,-0.2,0.15,0.0,-0.2,-0.15,0.0,,0,0,,,,,,False
8.823144912719727,robot_triangle,0,11,0,-5.77046930351483,-27.256904566681307,1.0,0.0,0.0,0.4394562479890028,0.8982639957737525,1.0,1.0,1.0,0.0,0.0,1.0,1.0,0,0,False,0.3,0.0,0.0,-0.2,0.15,0.0,-0.2,-0.15,0.0,,0,0,,,,,,False
9.09580111503601,robot_triangle,0,11,0,-5.667061308641611,-27.142872108201395,1.0,0.0,0.0,0.4350682916833323,0.9003974575551327,1.0,1.0,1.0,0.0,0.0,1.0,1.0,0,0,False,0.3,0.0,0.0,-0.2,0.15,0.0,-0.2,-0.15,0.0,,0,0,,,,,,False
9.294970512390137,robot_triangle,0,11,0,-5.552218809878655,-27.02144007131497,1.0,0.0,0.0,0.43014136472597797,0.902761544568483,1.0,1.0,1.0,0.0,0.0,1.0,1.0,0,0,False,0.3,0.0,0.0,-0.2,0.15,0.0,-0.2,-0.15,0.0,,0,0,,,,,,False
9.6043701171875,robot_triangle,0,11,0,-5.44336614499578,-26.909604149958785,1.0,0.0,0.0,0.42445783291436323,0.9054477058768455,1.0,1.0,1.0,0.0,0.0,1.0,1.0,0,0,False,0.3,0.0,0.0,-0.2,0.15,0.0,-0.2,-0.15,0.0,,0,0,,,,,,False
9.849430084228516,robot_triangle,0,11,0,-5.3421624178782645,-26.808570368712157,1.0,0.0,0.0,0.41824599937277557,0.90833379547866,1.0,1.0,1.0,0.0,0.0,1.0,1.0,0,0,False,0.3,0.0,0.0,-0.2,0.15,0.0,-0.2,-0.15,0.0,,0,0,,,,,,False
10.168278694152832,robot_triangle,0,11,0,-5.234932294899769,-26.698486559834635,1.0,0.0,0.0,0.41117791628748795,0.9115551114208507,1.0,1.0,1.0,0.0,0.0,1.0,1.0,0,0,False,0.3,0.0,0.0,-0.2,0.15,0.0,-0.2,-0.15,0.0,,0,0,,,,,,False
10.36162257194519,robot_triangle,0,11,0,-5.127500844037674,-26.598545744830144,1.0,0.0,0.0,0.4042281566889912,0.9146581860672436,1.0,1.0,1.0,0.0,0.0,1.0,1.0,0,0,False,0.3,0.0,0.0,-0.2,0.15,0.0,-0.2,-0.15,0.0,,0,0,,,,,,False
10.64691710472107,robot_triangle,0,11,0,-5.0205185878469445,-26.497983791161587,1.0,0.0,0.0,0.3968740953350551,0.9178730590076067,1.0,1.0,1.0,0.0,0.0,1.0,1.0,0,0,False,0.3,0.0,0.0,-0.2,0.15,0.0,-0.2,-0.15,0.0,,0,0,,,,,,False
10.847550392150879,robot_triangle,0,11,0,-4.9187900500254464,-26.40768183620351,1.0,0.0,0.0,0.388776939922414,0.921331911411172,1.0,1.0,1.0,0.0,0.0,1.0,1.0,0,0,False,0.3,0.0,0.0,-0.2,0.15,0.0,-0.2,-0.15,0.0,,0,0,,,,,,False
11.091012477874756,robot_triangle,0,11,0,-4.813675712001739,-26.319772563531938,1.0,0.0,0.0,0.3809610216061995,0.924591098819776,1.0,1.0,1.0,0.0,0.0,1.0,1.0,0,0,False,0.3,0.0,0.0,-0.2,0.15,0.0,-0.2,-0.15,0.0,,0,0,,,,,,False
11.33915114402771,robot_triangle,0,11,0,-4.712581762169437,-26.2307561568941,1.0,0.0,0.0,0.37185333629713185,0.928291493166178,1.0,1.0,1.0,0.0,0.0,1.0,1.0,0,0,False,0.3,0.0,0.0,-0.2,0.15,0.0,-0.2,-0.15,0.0,,0,0,,,,,,False
11.649022817611694,robot_triangle,0,11,0,-4.612664360185401,-26.152249254680434,1.0,0.0,0.0,0.3646240205265805,0.93115483334139,1.0,1.0,1.0,0.0,0.0,1.0,1.0,0,0,False,0.3,0.0,0.0,-0.2,0.15,0.0,-0.2,-0.15,0.0,,0,0,,,,,,False
11.861140012741089,robot_triangle,0,11,0,-4.506754309555518,-26.0646255229763,1.0,0.0,0.0,0.35641811872270945,0.9343265621002994,1.0,1.0,1.0,0.0,0.0,1.0,1.0,0,0,False,0.3,0.0,0.0,-0.2,0.15,0.0,-0.2,-0.15,0.0,,0,0,,,,,,False
12.10537338256836,robot_triangle,0,11,0,-4.40537882263135,-25.985636035345127,1.0,0.0,0.0,0.349322687672312,0.9370024865908267,1.0,1.0,1.0,0.0,0.0,1.0,1.0,0,0,False,0.3,0.0,0.0,-0.2,0.15,0.0,-0.2,-0.15,0.0,,0,0,,,,,,False
12.397191286087036,robot_triangle,0,11,0,-4.300453906377489,-25.90909550792893,1.0,0.0,0.0,0.3411576437222972,0.9400060968578077,1.0,1.0,1.0,0.0,0.0,1.0,1.0,0,0,False,0.3,0.0,0.0,-0.2,0.15,0.0,-0.2,-0.15,0.0,,0,0,,,,,,False
12.576449871063232,robot_triangle,0,11,0,-4.199127257416604,-25.830802962565667,1.0,0.0,0.0,0.33346578563449375,0.9427622021544828,1.0,1.0,1.0,0.0,0.0,1.0,1.0,0,0,False,0.3,0.0,0.0,-0.2,0.15,0.0,-0.2,-0.15,0.0,,0,0,,,,,,False
12.905657768249512,robot_triangle,0,11,0,-4.0999044371974565,-25.76409603819696,1.0,0.0,0.0,0.32507191331268176,0.9456892994928262,1.0,1.0,1.0,0.0,0.0,1.0,1.0,0,0,False,0.3,0.0,0.0,-0.2,0.15,0.0,-0.2,-0.15,0.0,,0,0,,,,,,False
13.10193157196045,robot_triangle,0,11,0,-3.9934149717634377,-25.697623829668267,1.0,0.0,0.0,0.3173234033115585,0.9483173823729955,1.0,1.0,1.0,0.0,0.0,1.0,1.0,0,0,False,0.3,0.0,0.0,-0.2,0.15,0.0,-0.2,-0.15,0.0,,0,0,,,,,,False
13.420143604278564,robot_triangle,0,11,0,-3.8933781783834474,-25.63174431560193,1.0,0.0,0.0,0.30894359007100286,0.9510803636675715,1.0,1.0,1.0,0.0,0.0,1.0,1.0,0,0,False,0.3,0.0,0.0,-0.2,0.15,0.0,-0.2,-0.15,0.0,,0,0,,,,,,False
13.679903745651245,robot_triangle,0,11,0,-3.786788658732156,-25.565402016353147,1.0,0.0,0.0,0.3001682892438207,0.9538862605847922,1.0,1.0,1.0,0.0,0.0,1.0,1.0,0,0,False,0.3,0.0,0.0,-0.2,0.15,0.0,-0.2,-0.15,0.0,,0,0,,,,,,False
13.830468654632568,robot_triangle,0,11,0,-3.680158859945201,-25.499332697971838,1.0,0.0,0.0,0.2922578926339445,0.9563395444052106,1.0,1.0,1.0,0.0,0.0,1.0,1.0,0,0,False,0.3,0.0,0.0,-0.2,0.15,0.0,-0.2,-0.15,0.0,,0,0,,,,,,False
14.04219388961792,robot_triangle,0,11,0,-3.579129068706031,-25.442837881806977,1.0,0.0,0.0,0.2845937137510966,0.9586482243729234,1.0,1.0,1.0,0.0,0.0,1.0,1.0,0,0,False,0.3,0.0,0.0,-0.2,0.15,0.0,-0.2,-0.15,0.0,,0,0,,,,,,False
14.359342575073242,robot_triangle,0,11,0,-3.4728824441557333,-25.387720983633965,1.0,0.0,0.0,0.27588656482077145,0.9611902014437071,1.0,1.0,1.0,0.0,0.0,1.0,1.0,0,0,False,0.3,0.0,0.0,-0.2,0.15,0.0,-0.2,-0.15,0.0,,0,0,,,,,,False
14.571033716201782,robot_triangle,0,11,0,-3.366292721352385,-25.333094795828796,1.0,0.0,0.0,0.2674748728474124,0.9635648355950214,1.0,1.0,1.0,0.0,0.0,1.0,1.0,0,0,False,0.3,0.0,0.0,-0.2,0.15,0.0,-0.2,-0.15,0.0,,0,0,,,,,,False
14.85669231414795,robot_triangle,0,11,0,-3.2588190993488864,-25.27763853787691,1.0,0.0,0.0,0.25888149056839244,0.9659090919134613,1.0,1.0,1.0,0.0,0.0,1.0,1.0,0,0,False,0.3,0.0,0.0,-0.2,0.15,0.0,-0.2,-0.15,0.0,,0,0,,,,,,False
15.056194305419922,robot_triangle,0,11,0,-3.1584743738031302,-25.23322582702306,1.0,0.0,0.0,0.2507397887812137,0.9680545223911473,1.0,1.0,1.0,0.0,0.0,1.0,1.0,0,0,False,0.3,0.0,0.0,-0.2,0.15,0.0,-0.2,-0.15,0.0,,0,0,,,,,,False
15.33031702041626,robot_triangle,0,11,0,-3.0513644173528176,-25.188846936131384,1.0,0.0,0.0,0.24165286488132476,0.9703627635552841,1.0,1.0,1.0,0.0,0.0,1.0,1.0,0,0,False,0.3,0.0,0.0,-0.2,0.15,0.0,-0.2,-0.15,0.0,,0,0,,,,,,False
15.54877257347107,robot_triangle,0,11,0,-2.9456768925721843,-25.1454656776271,1.0,0.0,0.0,0.23419086286346763,0.9721906396130671,1.0,1.0,1.0,0.0,0.0,1.0,1.0,0,0,False,0.3,0.0,0.0,-0.2,0.15,0.0,-0.2,-0.15,0.0,,0,0,,,,,,False
15.902426719665527,robot_triangle,0,11,0,-2.8381732152996744,-25.101410435884837,1.0,0.0,0.0,0.23037307969318674,0.9731023811257871,1.0,1.0,1.0,0.0,0.0,1.0,1.0,0,0,False,0.3,0.0,0.0,-0.2,0.15,0.0,-0.2,-0.15,0.0,,0,0,,,,,,False
16.130586862564087,robot_triangle,0,11,0,-2.737070328460008,-25.05658254331481,1.0,0.0,0.0,0.2304849655359826,0.973075886383933,1.0,1.0,1.0,0.0,0.0,1.0,1.0,0,0,False,0.3,0.0,0.0,-0.2,0.15,0.0,-0.2,-0.15,0.0,,0,0,,,,,,False
16.38548707962036,robot_triangle,0,11,0,-2.6371365640813624,-25.012087253005266,1.0,0.0,0.0,0.23397412480202553,0.9722428240532949,1.0,1.0,1.0,0.0,0.0,1.0,1.0,0,0,False,0.3,0.0,0.0,-0.2,0.15,0.0,-0.2,-0.15,0.0,,0,0,,,,,,False
16.616929292678833,robot_triangle,0,11,0,-2.5366779506411703,-24.957179480341512,1.0,0.0,0.0,0.23944138101471793,0.9709108224022249,1.0,1.0,1.0,0.0,0.0,1.0,1.0,0,0,False,0.3,0.0,0.0,-0.2,0.15,0.0,-0.2,-0.15,0.0,,0,0,,,,,,False
16.886378526687622,robot_triangle,0,11,0,-2.430180748292864,-24.901439695419807,1.0,0.0,0.0,0.24744965692893722,0.9689007520307492,1.0,1.0,1.0,0.0,0.0,1.0,1.0,0,0,False,0.3,0.0,0.0,-0.2,0.15,0.0,-0.2,-0.15,0.0,,0,0,,,,,,False
17.07374858856201,robot_triangle,0,11,0,-2.329347446591998,-24.8454017811283,1.0,0.0,0.0,0.2560015577708904,0.9666763690185446,1.0,1.0,1.0,0.0,0.0,1.0,1.0,0,0,False,0.3,0.0,0.0,-0.2,0.15,0.0,-0.2,-0.15,0.0,,0,0,,,,,,False
17.28850507736206,robot_triangle,0,11,0,-2.229877140781726,-24.77922737656382,1.0,0.0,0.0,0.26668122107562175,0.9637847925370141,1.0,1.0,1.0,0.0,0.0,1.0,1.0,0,0,False,0.3,0.0,0.0,-0.2,0.15,0.0,-0.2,-0.15,0.0,,0,0,,,,,,False
17.58099341392517,robot_triangle,0,11,0,-2.1365599905563406,-24.72233885502464,1.0,0.0,0.0,0.27729167585683134,0.9607857859588214,1.0,1.0,1.0,0.0,0.0,1.0,1.0,0,0,False,0.3,0.0,0.0,-0.2,0.15,0.0,-0.2,-0.15,0.0,,0,0,,,,,,False
17.849602222442627,robot_triangle,0,11,0,-2.0378473810205753,-24.656382196882483,1.0,0.0,0.0,0.28792117989191557,0.957654109879787,1.0,1.0,1.0,0.0,0.0,1.0,1.0,0,0,False,0.3,0.0,0.0,-0.2,0.15,0.0,-0.2,-0.15,0.0,,0,0,,,,,,False
18.090696811676025,robot_triangle,0,11,0,-1.9384413551643176,-24.589148415556448,1.0,0.0,0.0,0.29976063667204045,0.9540144447029998,1.0,1.0,1.0,0.0,0.0,1.0,1.0,0,0,False,0.3,0.0,0.0,-0.2,0.15,0.0,-0.2,-0.15,0.0,,0,0,,,,,,False
18.322131633758545,robot_triangle,0,11,0,-1.8453125392375704,-24.512077295389705,1.0,0.0,0.0,0.31151467045152736,0.950241343077366,1.0,1.0,1.0,0.0,0.0,1.0,1.0,0,0,False,0.3,0.0,0.0,-0.2,0.15,0.0,-0.2,-0.15,0.0,,0,0,,,,,,False
18.6419460773468,robot_triangle,0,11,0,-1.746545807314895,-24.444262650479907,1.0,0.0,0.0,0.3222121301217366,0.9466674934750918,1.0,1.0,1.0,0.0,0.0,1.0,1.0,0,0,False,0.3,0.0,0.0,-0.2,0.15,0.0,-0.2,-0.15,0.0,,0,0,,,,,,False
18.91428279876709,robot_triangle,0,11,0,-1.6473459529737038,-24.367042370415263,1.0,0.0,0.0,0.33300118041321947,0.9429264095587748,1.0,1.0,1.0,0.0,0.0,1.0,1.0,0,0,False,0.3,0.0,0.0,-0.2,0.15,0.0,-0.2,-0.15,0.0,,0,0,,,,,,False
19.08743405342102,robot_triangle,0,11,0,-1.5482373208563638,-24.288951716209006,1.0,0.0,0.0,0.34266458371544395,0.9394578133514679,1.0,1.0,1.0,0.0,0.0,1.0,1.0,0,0,False,0.3,0.0,0.0,-0.2,0.15,0.0,-0.2,-0.15,0.0,,0,0,,,,,,False
19.406781911849976,robot_triangle,0,11,0,-1.4486943366072282,-24.200912230796618,1.0,0.0,0.0,0.35322588746657674,0.9355380657265899,1.0,1.0,1.0,0.0,0.0,1.0,1.0,0,0,False,0.3,0.0,0.0,-0.2,0.15,0.0,-0.2,-0.15,0.0,,0,0,,,,,,False
19.57048726081848,robot_triangle,0,11,0,-1.3554038516783156,-24.121820892040482,1.0,0.0,0.0,0.36276070666939436,0.9318823260995572,1.0,1.0,1.0,0.0,0.0,1.0,1.0,0,0,False,0.3,0.0,0.0,-0.2,0.15,0.0,-0.2,-0.15,0.0,,0,0,,,,,,False
19.839961290359497,robot_triangle,0,11,0,-1.262704692108577,-24.04337061721589,1.0,0.0,0.0,0.3730455313828036,0.9278130369397284,1.0,1.0,1.0,0.0,0.0,1.0,1.0,0,0,False,0.3,0.0,0.0,-0.2,0.15,0.0,-0.2,-0.15,0.0,,0,0,,,,,,False
20.07542610168457,robot_triangle,0,11,0,-1.1703698199866523,-23.95501564964682,1.0,0.0,0.0,0.38304526656261395,0.9237295728534277,1.0,1.0,1.0,0.0,0.0,1.0,1.0,0,0,False,0.3,0.0,0.0,-0.2,0.15,0.0,-0.2,-0.15,0.0,,0,0,,,,,,False
20.315175771713257,robot_triangle,0,11,0,-1.0843211823851928,-23.855602049743222,1.0,0.0,0.0,0.394110148721762,0.9190632136444754,1.0,1.0,1.0,0.0,0.0,1.0,1.0,0,0,False,0.3,0.0,0.0,-0.2,0.15,0.0,-0.2,-0.15,0.0,,0,0,,,,,,False
20.572375535964966,robot_triangle,0,11,0,-0.9924656344332372,-23.765662244453438,1.0,0.0,0.0,0.4041050576269844,0.9147125791199614,1.0,1.0,1.0,0.0,0.0,1.0,1.0,0,0,False,0.3,0.0,0.0,-0.2,0.15,0.0,-0.2,-0.15,0.0,,0,0,,,,,,False
20.876172065734863,robot_triangle,0,11,0,-0.9065107246532709,-23.66585056359996,1.0,0.0,0.0,0.41457478831190675,0.9100152443207409,1.0,1.0,1.0,0.0,0.0,1.0,1.0,0,0,False,0.3,0.0,0.0,-0.2,0.15,0.0,-0.2,-0.15,0.0,,0,0,,,,,,False
21.11475706100464,robot_triangle,0,11,0,-0.8277767435090945,-23.5657752342945,1.0,0.0,0.0,0.4237570499936279,0.9057758898208198,1.0,1.0,1.0,0.0,0.0,1.0,1.0,0,0,False,0.3,0.0,0.0,-0.2,0.15,0.0,-0.2,-0.15,0.0,,0,0,,,,,,False
21.33260750770569,robot_triangle,0,11,0,-0.7437426092134902,-23.46689269227238,1.0,0.0,0.0,0.4283324415002113,0.90362122571267,1.0,1.0,1.0,0.0,0.0,1.0,1.0,0,0,False,0.3,0.0,0.0,-0.2,0.15,0.0,-0.2,-0.15,0.0,,0,0,,,,,,False
21.61065435409546,robot_triangle,0,11,0,-0.6756490201181963,-23.39271745613692,1.0,0.0,0.0,0.42834130155650296,0.903617025836101,1.0,1.0,1.0,0.0,0.0,1.0,1.0,0,0,False,0.3,0.0,0.0,-0.2,0.15,0.0,-0.2,-0.15,0.0,,0,0,,,,,,False
21.863179445266724,robot_triangle,0,11,0,-0.6353561390257766,-23.35127261032864,1.0,0.0,0.0,0.42805838101817917,0.903751084336885,1.0,1.0,1.0,0.0,0.0,1.0,1.0,0,0,False,0.3,0.0,0.0,-0.2,0.15,0.0,-0.2,-0.15,0.0,,0,0,,,,,,False
22.136938095092773,robot_triangle,0,11,0,-0.623158514044359,-23.342564001598102,1.0,0.0,0.0,0.4279181476098516,0.9038174920558648,1.0,1.0,1.0,0.0,0.0,1.0,1.0,0,0,False,0.3,0.0,0.0,-0.2,0.15,0.0,-0.2,-0.15,0.0,,0,0,,,,,,False
22.349174737930298,robot_triangle,0,11,0,-0.6310063700643223,-23.34488694966016,1.0,0.0,0.0,0.42873907459393884,0.9034283623599233,1.0,1.0,1.0,0.0,0.0,1.0,1.0,0,0,False,0.3,0.0,0.0,-0.2,0.15,0.0,-0.2,-0.15,0.0,,0,0,,,,,,False
22.55631136894226,robot_triangle,0,11,0,-0.6536577990628842,-23.378585619194226,1.0,0.0,0.0,0.43038450857208616,0.9026456529453648,1.0,1.0,1.0,0.0,0.0,1.0,1.0,0,0,False,0.3,0.0,0.0,-0.2,0.15,0.0,-0.2,-0.15,0.0,,0,0,,,,,,False
22.83604645729065,robot_triangle,0,11,0,-0.6905475456518444,-23.41459716658832,1.0,0.0,0.0,0.43244296202458377,0.901661291503303,1.0,1.0,1.0,0.0,0.0,1.0,1.0,0,0,False,0.3,0.0,0.0,-0.2,0.15,0.0,-0.2,-0.15,0.0,,0,0,,,,,,False
23.078429460525513,robot_triangle,0,11,0,-0.7406580534424106,-23.47046220294115,1.0,0.0,0.0,0.43417638544735837,0.9008278782985498,1.0,1.0,1.0,0.0,0.0,1.0,1.0,0,0,False,0.3,0.0,0.0,-0.2,0.15,0.0,-0.2,-0.15,0.0,,0,0,,,,,,False
23.33863663673401,robot_triangle,0,11,0,-0.7898395650801289,-23.535176196758353,1.0,0.0,0.0,0.43572836232853807,0.9000782156360025,1.0,1.0,1.0,0.0,0.0,1.0,1.0,0,0,False,0.3,0.0,0.0,-0.2,0.15,0.0,-0.2,-0.15,0.0,,0,0,,,,,,False
23.561305046081543,robot_triangle,0,11,0,-0.8259535225787302,-23.580581343696345,1.0,0.0,0.0,0.43719272547824156,0.8993678450939343,1.0,1.0,1.0,0.0,0.0,1.0,1.0,0,0,False,0.3,0.0,0.0,-0.2,0.15,0.0,-0.2,-0.15,0.0,,0,0,,,,,,False
23.86654829978943,robot_triangle,0,11,0,-0.8676211059816377,-23.634355871378688,1.0,0.0,0.0,0.43836610139225546,0.8987965070860894,1.0,1.0,1.0,0.0,0.0,1.0,1.0,0,0,False,0.3,0.0,0.0,-0.2,0.15,0.0,-0.2,-0.15,0.0,,0,0,,,,,,False
24.081619024276733,robot_triangle,0,11,0,-0.9033836041551098,-23.66868610108628,1.0,0.0,0.0,0.43969357552736055,0.8981478495436959,1.0,1.0,1.0,0.0,0.0,1.0,1.0,0,0,False,0.3,0.0,0.0,-0.2,0.15,0.0,-0.2,-0.15,0.0,,0,0,,,,,,False
24.31514000892639,robot_triangle,0,11,0,-0.9383397065064812,-23.721662827417827,1.0,0.0,0.0,0.44057648509214625,0.8977150777300389,1.0,1.0,1.0,0.0,0.0,1.0,1.0,0,0,False,0.3,0.0,0.0,-0.2,0.15,0.0,-0.2,-0.15,0.0,,0,0,,,,,,False
24.574636220932007,robot_triangle,0,11,0,-0.9671704248110305,-23.756796743647545,1.0,0.0,0.0,0.44204259201366264,0.8969940617673244,1.0,1.0,1.0,0.0,0.0,1.0,1.0,0,0,False,0.3,0.0,0.0,-0.2,0.15,0.0,-0.2,-0.15,0.0,,0,0,,,,,,False
25.00881862640381,robot_triangle,0,11,0,-1.002078784903869,-23.799723132274597,1.0,0.0,0.0,0.4439369532093911,0.8960580235538115,1.0,1.0,1.0,0.0,0.0,1.0,1.0,0,0,False,0.3,0.0,0.0,-0.2,0.15,0.0,-0.2,-0.15,0.0,,0,0,,,,,,False
25.112632751464844,robot_triangle,0,11,0,-1.0309050518804275,-23.833646829592876,1.0,0.0,0.0,0.44568157930848423,0.8951915604299983,1.0,1.0,1.0,0.0,0.0,1.0,1.0,0,0,False,0.3,0.0,0.0,-0.2,0.15,0.0,-0.2,-0.15,0.0,,0,0,,,,,,False
25.330530881881714,robot_triangle,0,11,0,-1.0592591917821903,-23.876872896153852,1.0,0.0,0.0,0.44748987030775755,0.8942890002521257,1.0,1.0,1.0,0.0,0.0,1.0,1.0,0,0,False,0.3,0.0,0.0,-0.2,0.15,0.0,-0.2,-0.15,0.0,,0,0,,,,,,False
25.65809965133667,robot_triangle,0,11,0,-1.0876823610378297,-23.91118363909261,1.0,0.0,0.0,0.44900547190892715,0.893529006913509,1.0,1.0,1.0,0.0,0.0,1.0,1.0,0,0,False,0.3,0.0,0.0,-0.2,0.15,0.0,-0.2,-0.15,0.0,,0,0,,,,,,False
25.835854530334473,robot_triangle,0,11,0,-1.1096066383669814,-23.95390112661066,1.0,0.0,0.0,0.45023757125861535,0.8929088024132942,1.0,1.0,1.0,0.0,0.0,1.0,1.0,0,0,False,0.3,0.0,0.0,-0.2,0.15,0.0,-0.2,-0.15,0.0,,0,0,,,,,,False
26.065605878829956,robot_triangle,0,11,0,-1.1375519769698055,-23.988205235761818,1.0,0.0,0.0,0.4513898908738143,0.8923268271305789,1.0,1.0,1.0,0.0,0.0,1.0,1.0,0,0,False,0.3,0.0,0.0,-0.2,0.15,0.0,-0.2,-0.15,0.0,,0,0,,,,,,False
26.32924795150757,robot_triangle,0,11,0,-1.1657295513731791,-24.02157391464161,1.0,0.0,0.0,0.45283407775012124,0.891594805967485,1.0,1.0,1.0,0.0,0.0,1.0,1.0,0,0,False,0.3,0.0,0.0,-0.2,0.15,0.0,-0.2,-0.15,0.0,,0,0,,,,,,False
26.565134286880493,robot_triangle,0,11,0,-1.1877566542513989,-24.065039294248415,1.0,0.0,0.0,0.4541173079876418,0.8909419007915484,1.0,1.0,1.0,0.0,0.0,1.0,1.0,0,0,False,0.3,0.0,0.0,-0.2,0.15,0.0,-0.2,-0.15,0.0,,0,0,,,,,,False
26.85911202430725,robot_triangle,0,11,0,-1.2091626148243717,-24.09903348445972,1.0,0.0,0.0,0.45495482461577297,0.8905145184435969,1.0,1.0,1.0,0.0,0.0,1.0,1.0,0,0,False,0.3,0.0,0.0,-0.2,0.15,0.0,-0.2,-0.15,0.0,,0,0,,,,,,False
27.10161852836609,robot_triangle,0,11,0,-1.2304294115933165,-24.13237056304635,1.0,0.0,0.0,0.4555897207019404,0.890189870977382,1.0,1.0,1.0,0.0,0.0,1.0,1.0,0,0,False,0.3,0.0,0.0,-0.2,0.15,0.0,-0.2,-0.15,0.0,,0,0,,,,,,False
27.621511936187744,robot_triangle,0,11,0,-1.2516893033431746,-24.165667816749885,1.0,0.0,0.0,0.45634873178509877,0.8898010086520086,1.0,1.0,1.0,0.0,0.0,1.0,1.0,0,0,False,0.3,0.0,0.0,-0.2,0.15,0.0,-0.2,-0.15,0.0,,0,0,,,,,,False
27.733470678329468,robot_triangle,0,11,0,-1.2728742119243328,-24.198873139576627,1.0,0.0,0.0,0.45799596853871033,0.8889542692412746,1.0,1.0,1.0,0.0,0.0,1.0,1.0,0,0,False,0.3,0.0,0.0,-0.2,0.15,0.0,-0.2,-0.15,0.0,,0,0,,,,,,False
27.87438201904297,robot_triangle,0,11,0,-1.294188221714162,-24.231966322727672,1.0,0.0,0.0,0.46043710575184793,0.8876923293838139,1.0,1.0,1.0,0.0,0.0,1.0,1.0,0,0,False,0.3,0.0,0.0,-0.2,0.15,0.0,-0.2,-0.15,0.0,,0,0,,,,,,False
28.040422439575195,robot_triangle,0,11,0,-1.3090199761757801,-24.26513571122169,1.0,0.0,0.0,0.4622564884949385,0.8867462651989738,1.0,1.0,1.0,0.0,0.0,1.0,1.0,0,0,False,0.3,0.0,0.0,-0.2,0.15,0.0,-0.2,-0.15,0.0,,0,0,,,,,,False
28.35787081718445,robot_triangle,0,11,0,-1.3298903638874684,-24.298841973084585,1.0,0.0,0.0,0.46395365930032895,0.8858594708089056,1.0,1.0,1.0,0.0,0.0,1.0,1.0,0,0,False,0.3,0.0,0.0,-0.2,0.15,0.0,-0.2,-0.15,0.0,,0,0,,,,,,False
28.566046237945557,robot_triangle,0,11,0,-1.3509830469916837,-24.3319536303582,1.0,0.0,0.0,0.46567428279991635,0.884956192327498,1.0,1.0,1.0,0.0,0.0,1.0,1.0,0,0,False,0.3,0.0,0.0,-0.2,0.15,0.0,-0.2,-0.15,0.0,,0,0,,,,,,False
28.829122304916382,robot_triangle,0,11,0,-1.3724810042260867,-24.36547992837574,1.0,0.0,0.0,0.46700091188086124,0.884256833902031,1.0,1.0,1.0,0.0,0.0,1.0,1.0,0,0,False,0.3,0.0,0.0,-0.2,0.15,0.0,-0.2,-0.15,0.0,,0,0,,,,,,False
29.147597312927246,robot_triangle,0,11,0,-1.3872632860103153,-24.388993345052057,1.0,0.0,0.0,0.4676694155642393,0.883903454991439,1.0,1.0,1.0,0.0,0.0,1.0,1.0,0,0,False,0.3,0.0,0.0,-0.2,0.15,0.0,-0.2,-0.15,0.0,,0,0,,,,,,False
29.325049877166748,robot_triangle,0,11,0,-1.401068543226368,-24.42070397186049,1.0,0.0,0.0,0.46521859499131596,0.8851958308048598,1.0,1.0,1.0,0.0,0.0,1.0,1.0,0,0,False,0.3,0.0,0.0,-0.2,0.15,0.0,-0.2,-0.15,0.0,,0,0,,,,,,False
29.63145613670349,robot_triangle,0,11,0,-1.4077619539053858,-24.442704135278817,1.0,0.0,0.0,0.4595246198504454,0.8881650318219603,1.0,1.0,1.0,0.0,0.0,1.0,1.0,0,0,False,0.3,0.0,0.0,-0.2,0.15,0.0,-0.2,-0.15,0.0,,0,0,,,,,,False
29.823171854019165,robot_triangle,0,11,0,-1.4071520931689996,-24.464093875276184,1.0,0.0,0.0,0.44970787118108413,0.8931756997353754,1.0,1.0,1.0,0.0,0.0,1.0,1.0,0,0,False,0.3,0.0,0.0,-0.2,0.15,0.0,-0.2,-0.15,0.0,,0,0,,,,,,False
30.04146099090576,robot_triangle,0,11,0,-1.3934433678465137,-24.475288957112895,1.0,0.0,0.0,0.4377785923390133,0.8990828126984032,1.0,1.0,1.0,0.0,0.0,1.0,1.0,0,0,False,0.3,0.0,0.0,-0.2,0.15,0.0,-0.2,-0.15,0.0,,0,0,,,,,,False
30.342124223709106,robot_triangle,0,11,0,-1.3782114381140398,-24.485403907520816,1.0,0.0,0.0,0.42124575635712624,0.906946532465455,1.0,1.0,1.0,0.0,0.0,1.0,1.0,0,0,False,0.3,0.0,0.0,-0.2,0.15,0.0,-0.2,-0.15,0.0,,0,0,,,,,,False
30.676397562026978,robot_triangle,0,11,0,-1.3558476143602274,-24.49575007868953,1.0,0.0,0.0,0.40383105935153085,0.9148335780364756,1.0,1.0,1.0,0.0,0.0,1.0,1.0,0,0,False,0.3,0.0,0.0,-0.2,0.15,0.0,-0.2,-0.15,0.0,,0,0,,,,,,False
30.890647649765015,robot_triangle,0,11,0,-1.3269547881605128,-24.495653024546492,1.0,0.0,0.0,0.38265265835010137,0.9238922789252005,1.0,1.0,1.0,0.0,0.0,1.0,1.0,0,0,False,0.3,0.0,0.0,-0.2,0.15,0.0,-0.2,-0.15,0.0,,0,0,,,,,,False
31.083874940872192,robot_triangle,0,11,0,-1.290632787475435,-24.49483720667491,1.0,0.0,0.0,0.3614431526536564,0.9323941480939194,1.0,1.0,1.0,0.0,0.0,1.0,1.0,0,0,False,0.3,0.0,0.0,-0.2,0.15,0.0,-0.2,-0.15,0.0,,0,0,,,,,,False
31.458515167236328,robot_triangle,0,11,0,-1.2468178060043105,-24.49443005939611,1.0,0.0,0.0,0.33686244919979086,0.9415538701099998,1.0,1.0,1.0,0.0,0.0,1.0,1.0,0,0,False,0.3,0.0,0.0,-0.2,0.15,0.0,-0.2,-0.15,0.0,,0,0,,,,,,False
31.72165012359619,robot_triangle,0,11,0,-1.1978429888806008,-24.492457284479865,1.0,0.0,0.0,0.3129031164392827,0.9497850492203932,1.0,1.0,1.0,0.0,0.0,1.0,1.0,0,0,False,0.3,0.0,0.0,-0.2,0.15,0.0,-0.2,-0.15,0.0,,0,0,,,,,,False
31.890000581741333,robot_triangle,0,11,0,-1.145239195455319,-24.492844522041693,1.0,0.0,0.0,0.2869065084346976,0.9579585875275668,1.0,1.0,1.0,0.0,0.0,1.0,1.0,0,0,False,0.3,0.0,0.0,-0.2,0.15,0.0,-0.2,-0.15,0.0,,0,0,,,,,,False
32.07770538330078,robot_triangle,0,11,0,-1.0872179397352015,-24.49146549477236,1.0,0.0,0.0,0.2625642764024546,0.9649145043770745,1.0,1.0,1.0,0.0,0.0,1.0,1.0,0,0,False,0.3,0.0,0.0,-0.2,0.15,0.0,-0.2,-0.15,0.0,,0,0,,,,,,False
32.44217085838318,robot_triangle,0,11,0,-1.0220856592719578,-24.491945593825207,1.0,0.0,0.0,0.23626504464107795,0.9716886480147586,1.0,1.0,1.0,0.0,0.0,1.0,1.0,0,0,False,0.3,0.0,0.0,-0.2,0.15,0.0,-0.2,-0.15,0.0,,0,0,,,,,,False
32.59613060951233,robot_triangle,0,11,0,-0.9561710016440571,-24.481215786066016,1.0,0.0,0.0,0.21059311168089803,0.9775738035118151,1.0,1.0,1.0,0.0,0.0,1.0,1.0,0,0,False,0.3,0.0,0.0,-0.2,0.15,0.0,-0.2,-0.15,0.0,,0,0,,,,,,False
32.81318211555481,robot_triangle,0,11,0,-0.8849004735970479,-24.478667770251032,1.0,0.0,0.0,0.18953633881356716,0.9818737068835017,1.0,1.0,1.0,0.0,0.0,1.0,1.0,0,0,False,0.3,0.0,0.0,-0.2,0.15,0.0,-0.2,-0.15,0.0,,0,0,,,,,,False
33.10477042198181,robot_triangle,0,11,0,-0.81247022131482,-24.480932247818167,1.0,0.0,0.0,0.16401840570243917,0.9864572786445595,1.0,1.0,1.0,0.0,0.0,1.0,1.0,0,0,False,0.3,0.0,0.0,-0.2,0.15,0.0,-0.2,-0.15,0.0,,0,0,,,,,,False
33.422940731048584,robot_triangle,0,11,0,-0.7387625210877373,-24.48964730496544,1.0,0.0,0.0,0.1429952381405114,0.9897233764386585,1.0,1.0,1.0,0.0,0.0,1.0,1.0,0,0,False,0.3,0.0,0.0,-0.2,0.15,0.0,-0.2,-0.15,0.0,,0,0,,,,,,False
33.65803837776184,robot_triangle,0,11,0,-0.6598209944534587,-24.48056992365674,1.0,0.0,0.0,0.12295382372690515,0.9924123927233744,1.0,1.0,1.0,0.0,0.0,1.0,1.0,0,0,False,0.3,0.0,0.0,-0.2,0.15,0.0,-0.2,-0.15,0.0,,0,0,,,,,,False
33.843575954437256,robot_triangle,0,11,0,-0.5800269757501745,-24.480334266072333,1.0,0.0,0.0,0.1024784505093989,0.9947352246609108,1.0,1.0,1.0,0.0,0.0,1.0,1.0,0,0,False,0.3,0.0,0.0,-0.2,0.15,0.0,-0.2,-0.15,0.0,,0,0,,,,,,False
34.090373277664185,robot_triangle,0,11,0,-0.500881215033914,-24.501232356139536,1.0,0.0,0.0,0.0845965793743042,0.9964152842857074,1.0,1.0,1.0,0.0,0.0,1.0,1.0,0,0,False,0.3,0.0,0.0,-0.2,0.15,0.0,-0.2,-0.15,0.0,,0,0,,,,,,False
34.45058083534241,robot_triangle,0,11,0,-0.4145569352850946,-24.50283902526982,1.0,0.0,0.0,0.06517921878037543,0.9978735738755586,1.0,1.0,1.0,0.0,0.0,1.0,1.0,0,0,False,0.3,0.0,0.0,-0.2,0.15,0.0,-0.2,-0.15,0.0,,0,0,,,,,,False
34.6444787979126,robot_triangle,0,11,0,-0.32868118751655123,-24.513824810294203,1.0,0.0,0.0,0.04978501200222614,0.9987599574371903,1.0,1.0,1.0,0.0,0.0,1.0,1.0,0,0,False,0.3,0.0,0.0,-0.2,0.15,0.0,-0.2,-0.15,0.0,,0,0,,,,,,False
34.850374937057495,robot_triangle,0,11,0,-0.23473307237334948,-24.52609478823554,1.0,0.0,0.0,0.03256161447703104,0.9994697300382084,1.0,1.0,1.0,0.0,0.0,1.0,1.0,0,0,False,0.3,0.0,0.0,-0.2,0.15,0.0,-0.2,-0.15,0.0,,0,0,,,,,,False
35.04541635513306,robot_triangle,0,11,0,-0.14825128748991037,-24.547620999278067,1.0,0.0,0.0,0.01577442059482557,0.9998755760867937,1.0,1.0,1.0,0.0,0.0,1.0,1.0,0,0,False,0.3,0.0,0.0,-0.2,0.15,0.0,-0.2,-0.15,0.0,,0,0,,,,,,False
35.38694167137146,robot_triangle,0,11,0,-0.05694667470436303,-24.56130454899923,1.0,0.0,0.0,-9.46620631572909e-05,0.9999999955195469,1.0,1.0,1.0,0.0,0.0,1.0,1.0,0,0,False,0.3,0.0,0.0,-0.2,0.15,0.0,-0.2,-0.15,0.0,,0,0,,,,,,False
35.597161531448364,robot_triangle,0,11,0,0.04290088243143879,-24.5831202489705,1.0,0.0,0.0,-0.014060293037260991,0.9999011491941122,1.0,1.0,1.0,0.0,0.0,1.0,1.0,0,0,False,0.3,0.0,0.0,-0.2,0.15,0.0,-0.2,-0.15,0.0,,0,0,,,,,,False
35.83760333061218,robot_triangle,0,11,0,0.1427424862158721,-24.596513914422385,1.0,0.0,0.0,-0.02765490655587151,0.9996175299300157,1.0,1.0,1.0,0.0,0.0,1.0,1.0,0,0,False,0.3,0.0,0.0,-0.2,0.15,0.0,-0.2,-0.15,0.0,,0,0,,,,,,False
36.15386128425598,robot_triangle,0,11,0,0.2375496543571624,-24.628448960377515,1.0,0.0,0.0,-0.041542390162262535,0.9991367423028773,1.0,1.0,1.0,0.0,0.0,1.0,1.0,0,0,False,0.3,0.0,0.0,-0.2,0.15,0.0,-0.2,-0.15,0.0,,0,0,,,,,,False
36.50835418701172,robot_triangle,0,11,0,0.3421098177926629,-24.642558508161674,1.0,0.0,0.0,-0.05524834481118532,0.998472643789315,1.0,1.0,1.0,0.0,0.0,1.0,1.0,0,0,False,0.3,0.0,0.0,-0.2,0.15,0.0,-0.2,-0.15,0.0,,0,0,,,,,,False
36.689401388168335,robot_triangle,0,11,0,0.44373235325234184,-24.67470847389157,1.0,0.0,0.0,-0.06738012065286365,0.9977273772633513,1.0,1.0,1.0,0.0,0.0,1.0,1.0,0,0,False,0.3,0.0,0.0,-0.2,0.15,0.0,-0.2,-0.15,0.0,,0,0,,,,,,False
36.90949630737305,robot_triangle,0,11,0,0.5430344369146237,-24.708899438620087,1.0,0.0,0.0,-0.08045559207902207,0.9967581941991819,1.0,1.0,1.0,0.0,0.0,1.0,1.0,0,0,False,0.3,0.0,0.0,-0.2,0.15,0.0,-0.2,-0.15,0.0,,0,0,,,,,,False
37.14180660247803,robot_triangle,0,11,0,0.6433036783099921,-24.74306731091522,1.0,0.0,0.0,-0.09218014149242572,0.9957423469524816,1.0,1.0,1.0,0.0,0.0,1.0,1.0,0,0,False,0.3,0.0,0.0,-0.2,0.15,0.0,-0.2,-0.15,0.0,,0,0,,,,,,False
37.39596939086914,robot_triangle,0,11,0,0.7491635668106859,-24.776987232053248,1.0,0.0,0.0,-0.10470013860789361,0.9945038365815829,1.0,1.0,1.0,0.0,0.0,1.0,1.0,0,0,False,0.3,0.0,0.0,-0.2,0.15,0.0,-0.2,-0.15,0.0,,0,0,,,,,,False
37.71815371513367,robot_triangle,0,11,0,0.8559555238753462,-24.811160951358076,1.0,0.0,0.0,-0.11655262123269769,0.99318451784338,1.0,1.0,1.0,0.0,0.0,1.0,1.0,0,0,False,0.3,0.0,0.0,-0.2,0.15,0.0,-0.2,-0.15,0.0,,0,0,,,,,,False
37.903741121292114,robot_triangle,0,11,0,0.9568877011021092,-24.855397480698617,1.0,0.0,0.0,-0.12904755311232244,0.9916384063940455,1.0,1.0,1.0,0.0,0.0,1.0,1.0,0,0,False,0.3,0.0,0.0,-0.2,0.15,0.0,-0.2,-0.15,0.0,,0,0,,,,,,False
38.10550570487976,robot_triangle,0,11,0,1.0562433661180362,-24.900540239654013,1.0,0.0,0.0,-0.13986854008429644,0.9901700821044269,1.0,1.0,1.0,0.0,0.0,1.0,1.0,0,0,False,0.3,0.0,0.0,-0.2,0.15,0.0,-0.2,-0.15,0.0,,0,0,,,,,,False
38.361977100372314,robot_triangle,0,11,0,1.1513980391498653,-24.932750473605573,1.0,0.0,0.0,-0.12838493773689727,0.9917244111961211,1.0,1.0,1.0,0.0,0.0,1.0,1.0,0,0,False,0.3,0.0,0.0,-0.2,0.15,0.0,-0.2,-0.15,0.0,,0,0,,,,,,False
38.555378913879395,robot_triangle,0,11,0,1.1959369971571112,-24.921507137353796,1.0,0.0,0.0,-0.07556103938478197,0.9971411782325968,1.0,1.0,1.0,0.0,0.0,1.0,1.0,0,0,False,0.3,0.0,0.0,-0.2,0.15,0.0,-0.2,-0.15,0.0,,0,0,,,,,,False
38.80433893203735,robot_triangle,0,11,0,1.2332981623273156,-24.865780904342042,1.0,0.0,0.0,0.016964512520440015,0.9998560923027593,1.0,1.0,1.0,0.0,0.0,1.0,1.0,0,0,False,0.3,0.0,0.0,-0.2,0.15,0.0,-0.2,-0.15,0.0,,0,0,,,,,,False
39.06791305541992,robot_triangle,0,11,0,1.2474207168089775,-24.787403152660435,1.0,0.0,0.0,0.11616242983746483,0.993230230054571,1.0,1.0,1.0,0.0,0.0,1.0,1.0,0,0,False,0.3,0.0,0.0,-0.2,0.15,0.0,-0.2,-0.15,0.0,,0,0,,,,,,False
39.32848906517029,robot_triangle,0,11,0,1.2460104008959048,-24.705092759088174,1.0,0.0,0.0,0.23113439076855194,0.9729218331418256,1.0,1.0,1.0,0.0,0.0,1.0,1.0,0,0,False,0.3,0.0,0.0,-0.2,0.15,0.0,-0.2,-0.15,0.0,,0,0,,,,,,False
39.677937746047974,robot_triangle,0,11,0,1.2536739071431389,-24.603419169132476,1.0,0.0,0.0,0.33496180659073765,0.942231706177132,1.0,1.0,1.0,0.0,0.0,1.0,1.0,0,0,False,0.3,0.0,0.0,-0.2,0.15,0.0,-0.2,-0.15,0.0,,0,0,,,,,,False
39.84896755218506,robot_triangle,0,11,0,1.2567799926526868,-24.49914223364021,1.0,0.0,0.0,0.43257842305182914,0.9015963109451994,1.0,1.0,1.0,0.0,0.0,1.0,1.0,0,0,False,0.3,0.0,0.0,-0.2,0.15,0.0,-0.2,-0.15,0.0,,0,0,,,,,,False
40.16281342506409,robot_triangle,0,11,0,1.2730571798228498,-24.38727293396915,1.0,0.0,0.0,0.5049359706520525,0.8631568024071116,1.0,1.0,1.0,0.0,0.0,1.0,1.0,0,0,False,0.3,0.0,0.0,-0.2,0.15,0.0,-0.2,-0.15,0.0,,0,0,,,,,,False
40.44499230384827,robot_triangle,0,11,0,1.291067537043239,-24.2647206151286,1.0,0.0,0.0,0.5589886751596034,0.8291752896965221,1.0,1.0,1.0,0.0,0.0,1.0,1.0,0,0,False,0.3,0.0,0.0,-0.2,0.15,0.0,-0.2,-0.15,0.0,,0,0,,,,,,False
40.628533601760864,robot_triangle,0,11,0,1.3158587090522755,-24.131444161619324,1.0,0.0,0.0,0.6035971991166695,0.7972894212383052,1.0,1.0,1.0,0.0,0.0,1.0,1.0,0,0,False,0.3,0.0,0.0,-0.2,0.15,0.0,-0.2,-0.15,0.0,,0,0,,,,,,False
40.8760027885437,robot_triangle,0,11,0,1.3277037588500127,-23.997690818150875,1.0,0.0,0.0,0.6370343277307754,0.7708354333400865,1.0,1.0,1.0,0.0,0.0,1.0,1.0,0,0,False,0.3,0.0,0.0,-0.2,0.15,0.0,-0.2,-0.15,0.0,,0,0,,,,,,False
41.099950313568115,robot_triangle,0,11,0,1.348185324571178,-23.842736404474948,1.0,0.0,0.0,0.6705989323382936,0.7418201075373603,1.0,1.0,1.0,0.0,0.0,1.0,1.0,0,0,False,0.3,0.0,0.0,-0.2,0.15,0.0,-0.2,-0.15,0.0,,0,0,,,,,,False
41.307812452316284,robot_triangle,0,11,0,1.3444809134315667,-23.700521885020965,1.0,0.0,0.0,0.6921947718769121,0.7217107438484407,1.0,1.0,1.0,0.0,0.0,1.0,1.0,0,0,False,0.3,0.0,0.0,-0.2,0.15,0.0,-0.2,-0.15,0.0,,0,0,,,,,,False
41.57566452026367,robot_triangle,0,11,0,1.352514652013221,-23.5214327983986,1.0,0.0,0.0,0.7077249688893289,0.7064880525604085,1.0,1.0,1.0,0.0,0.0,1.0,1.0,0,0,False,0.3,0.0,0.0,-0.2,0.15,0.0,-0.2,-0.15,0.0,,0,0,,,,,,False
41.82555651664734,robot_triangle,0,11,0,1.3456912236021592,-23.342041573416324,1.0,0.0,0.0,0.7201377991842153,0.6938310674696794,1.0,1.0,1.0,0.0,0.0,1.0,1.0,0,0,False,0.3,0.0,0.0,-0.2,0.15,0.0,-0.2,-0.15,0.0,,0,0,,,,,,False
42.21627950668335,robot_triangle,0,11,0,1.343816726448486,-23.167543699627814,1.0,0.0,0.0,0.7263902611588768,0.6872824663073682,1.0,1.0,1.0,0.0,0.0,1.0,1.0,0,0,False,0.3,0.0,0.0,-0.2,0.15,0.0,-0.2,-0.15,0.0,,0,0,,,,,,False
42.492852449417114,robot_triangle,0,11,0,1.338995001712702,-22.990184881435184,1.0,0.0,0.0,0.7275752027960302,0.6860279325773226,1.0,1.0,1.0,0.0,0.0,1.0,1.0,0,0,False,0.3,0.0,0.0,-0.2,0.15,0.0,-0.2,-0.15,0.0,,0,0,,,,,,False
42.69307589530945,robot_triangle,0,11,0,1.3468283940060939,-22.813058658030773,1.0,0.0,0.0,0.7255694371316612,0.6881489605459302,1.0,1.0,1.0,0.0,0.0,1.0,1.0,0,0,False,0.3,0.0,0.0,-0.2,0.15,0.0,-0.2,-0.15,0.0,,0,0,,,,,,False
42.88520288467407,robot_triangle,0,11,0,1.350645992370947,-22.642637782374294,1.0,0.0,0.0,0.7216161745233798,0.6922933602644497,1.0,1.0,1.0,0.0,0.0,1.0,1.0,0,0,False,0.3,0.0,0.0,-0.2,0.15,0.0,-0.2,-0.15,0.0,,0,0,,,,,,False
43.061835289001465,robot_triangle,0,11,0,1.3580323832337375,-22.47730528770305,1.0,0.0,0.0,0.7176704441902969,0.696382892908565,1.0,1.0,1.0,0.0,0.0,1.0,1.0,0,0,False,0.3,0.0,0.0,-0.2,0.15,0.0,-0.2,-0.15,0.0,,0,0,,,,,,False
43.43855118751526,robot_triangle,0,11,0,1.3683246510135958,-22.308009409524313,1.0,0.0,0.0,0.7134260563981123,0.7007305202802555,1.0,1.0,1.0,0.0,0.0,1.0,1.0,0,0,False,0.3,0.0,0.0,-0.2,0.15,0.0,-0.2,-0.15,0.0,,0,0,,,,,,False
43.588343381881714,robot_triangle,0,11,0,1.383328255155716,-22.141942037081552,1.0,0.0,0.0,0.7088442898084428,0.7053649926144367,1.0,1.0,1.0,0.0,0.0,1.0,1.0,0,0,False,0.3,0.0,0.0,-0.2,0.15,0.0,-0.2,-0.15,0.0,,0,0,,,,,,False
43.83971071243286,robot_triangle,0,11,0,1.3996055690844613,-21.983392119345254,1.0,0.0,0.0,0.7040312440597696,0.7101689991738961,1.0,1.0,1.0,0.0,0.0,1.0,1.0,0,0,False,0.3,0.0,0.0,-0.2,0.15,0.0,-0.2,-0.15,0.0,,0,0,,,,,,False
44.0493700504303,robot_triangle,0,11,0,1.4152292778978477,-21.827122085074716,1.0,0.0,0.0,0.6998334802740502,0.7143060267752964,1.0,1.0,1.0,0.0,0.0,1.0,1.0,0,0,False,0.3,0.0,0.0,-0.2,0.15,0.0,-0.2,-0.15,0.0,,0,0,,,,,,False
44.33117699623108,robot_triangle,0,11,0,1.4374732349703054,-21.680040364928697,1.0,0.0,0.0,0.6951358999944506,0.7188783489151035,1.0,1.0,1.0,0.0,0.0,1.0,1.0,0,0,False,0.3,0.0,0.0,-0.2,0.15,0.0,-0.2,-0.15,0.0,,0,0,,,,,,False
44.57759475708008,robot_triangle,0,11,0,1.4600607105833212,-21.53483589410805,1.0,0.0,0.0,0.6907505683975704,0.7230931145146062,1.0,1.0,1.0,0.0,0.0,1.0,1.0,0,0,False,0.3,0.0,0.0,-0.2,0.15,0.0,-0.2,-0.15,0.0,,0,0,,,,,,False
44.81392192840576,robot_triangle,0,11,0,1.482222728500785,-21.38997540687447,1.0,0.0,0.0,0.6861670502187436,0.7274440041639688,1.0,1.0,1.0,0.0,0.0,1.0,1.0,0,0,False,0.3,0.0,0.0,-0.2,0.15,0.0,-0.2,-0.15,0.0,,0,0,,,,,,False
45.09307813644409,robot_triangle,0,11,0,1.5107092442973251,-21.2448238781616,1.0,0.0,0.0,0.6810441089951765,0.7322423926562611,1.0,1.0,1.0,0.0,0.0,1.0,1.0,0,0,False,0.3,0.0,0.0,-0.2,0.15,0.0,-0.2,-0.15,0.0,,0,0,,,,,,False
45.36863470077515,robot_triangle,0,11,0,1.5336927417183324,-21.109975493564832,1.0,0.0,0.0,0.676141979404662,0.7367713510219744,1.0,1.0,1.0,0.0,0.0,1.0,1.0,0,0,False,0.3,0.0,0.0,-0.2,0.15,0.0,-0.2,-0.15,0.0,,0,0,,,,,,False
45.63980031013489,robot_triangle,0,11,0,1.5683217099090516,-20.977024091781363,1.0,0.0,0.0,0.6716546558738437,0.7408643757415986,1.0,1.0,1.0,0.0,0.0,1.0,1.0,0,0,False,0.3,0.0,0.0,-0.2,0.15,0.0,-0.2,-0.15,0.0,,0,0,,,,,,False
45.859047651290894,robot_triangle,0,11,0,1.591525826830528,-20.852953996309466,1.0,0.0,0.0,0.6669571996266096,0.7450960299627363,1.0,1.0,1.0,0.0,0.0,1.0,1.0,0,0,False,0.3,0.0,0.0,-0.2,0.15,0.0,-0.2,-0.15,0.0,,0,0,,,,,,False
46.02675676345825,robot_triangle,0,11,0,1.6193612904031414,-20.721490703548035,1.0,0.0,0.0,0.6630020689611791,0.7486175636152252,1.0,1.0,1.0,0.0,0.0,1.0,1.0,0,0,False,0.3,0.0,0.0,-0.2,0.15,0.0,-0.2,-0.15,0.0,,0,0,,,,,,False
46.37294006347656,robot_triangle,0,11,0,1.641639999218433,-20.608395719068813,1.0,0.0,0.0,0.6590970721488808,0.7520578764196097,1.0,1.0,1.0,0.0,0.0,1.0,1.0,0,0,False,0.3,0.0,0.0,-0.2,0.15,0.0,-0.2,-0.15,0.0,,0,0,,,,,,False
46.56204628944397,robot_triangle,0,11,0,1.6698174366616245,-20.48751783548606,1.0,0.0,0.0,0.655257225585202,0.755405830212068,1.0,1.0,1.0,0.0,0.0,1.0,1.0,0,0,False,0.3,0.0,0.0,-0.2,0.15,0.0,-0.2,-0.15,0.0,,0,0,,,,,,False
46.90782427787781,robot_triangle,0,11,0,1.697228379786087,-20.377856107673164,1.0,0.0,0.0,0.6512955607127174,0.7588241512998297,1.0,1.0,1.0,0.0,0.0,1.0,1.0,0,0,False,0.3,0.0,0.0,-0.2,0.15,0.0,-0.2,-0.15,0.0,,0,0,,,,,,False
47.05516839027405,robot_triangle,0,11,0,1.7261417116993891,-20.266236425136356,1.0,0.0,0.0,0.6476551067406182,0.761933634060604,1.0,1.0,1.0,0.0,0.0,1.0,1.0,0,0,False,0.3,0.0,0.0,-0.2,0.15,0.0,-0.2,-0.15,0.0,,0,0,,,,,,False
47.31694960594177,robot_triangle,0,11,0,1.7477800328060469,-20.156028420834023,1.0,0.0,0.0,0.6440099473667942,0.7650171159474923,1.0,1.0,1.0,0.0,0.0,1.0,1.0,0,0,False,0.3,0.0,0.0,-0.2,0.15,0.0,-0.2,-0.15,0.0,,0,0,,,,,,False
47.62515735626221,robot_triangle,0,11,0,1.776097280482975,-20.044532585746346,1.0,0.0,0.0,0.6408374820819429,0.76767657353789,1.0,1.0,1.0,0.0,0.0,1.0,1.0,0,0,False,0.3,0.0,0.0,-0.2,0.15,0.0,-0.2,-0.15,0.0,,0,0,,,,,,False
47.93787431716919,robot_triangle,0,11,0,1.804098479122298,-19.934551397407414,1.0,0.0,0.0,0.6370552625390101,0.7708181319035982,1.0,1.0,1.0,0.0,0.0,1.0,1.0,0,0,False,0.3,0.0,0.0,-0.2,0.15,0.0,-0.2,-0.15,0.0,,0,0,,,,,,False
48.258800983428955,robot_triangle,0,11,0,1.8325853300921169,-19.833304791167294,1.0,0.0,0.0,0.6341411000141255,0.7732173467226889,1.0,1.0,1.0,0.0,0.0,1.0,1.0,0,0,False,0.3,0.0,0.0,-0.2,0.15,0.0,-0.2,-0.15,0.0,,0,0,,,,,,False
48.52596092224121,robot_triangle,0,11,0,1.8674782809532768,-19.734075917703365,1.0,0.0,0.0,0.6316853193535936,0.7752249075675706,1.0,1.0,1.0,0.0,0.0,1.0,1.0,0,0,False,0.3,0.0,0.0,-0.2,0.15,0.0,-0.2,-0.15,0.0,,0,0,,,,,,False
48.65301704406738,robot_triangle,0,11,0,1.8801020532153705,-19.66200064583093,1.0,0.0,0.0,0.6568346028213049,0.7540346839082263,1.0,1.0,1.0,0.0,0.0,1.0,1.0,0,0,False,0.3,0.0,0.0,-0.2,0.15,0.0,-0.2,-0.15,0.0,,0,0,,,,,,False
48.87624144554138,robot_triangle,0,11,0,1.8222926133939445,-19.64903626261211,1.0,0.0,0.0,0.7346311522758442,0.6784667052301575,1.0,1.0,1.0,0.0,0.0,1.0,1.0,0,0,False,0.3,0.0,0.0,-0.2,0.15,0.0,-0.2,-0.15,0.0,,0,0,,,,,,False
49.13387131690979,robot_triangle,0,11,0,1.7136154179590073,-19.657634333853224,1.0,0.0,0.0,0.819626221581442,0.5728986445228588,1.0,1.0,1.0,0.0,0.0,1.0,1.0,0,0,False,0.3,0.0,0.0,-0.2,0.15,0.0,-0.2,-0.15,0.0,,0,0,,,,,,False
49.331982374191284,robot_triangle,0,11,0,1.5846740720064942,-19.684181583445042,1.0,0.0,0.0,0.8942747948230892,0.4475182581125844,1.0,1.0,1.0,0.0,0.0,1.0,1.0,0,0,False,0.3,0.0,0.0,-0.2,0.15,0.0,-0.2,-0.15,0.0,,0,0,,,,,,False
49.607773542404175,robot_triangle,0,11,0,1.495613348347067,-19.76294456460949,1.0,0.0,0.0,0.9545704370737254,0.297985369883954,1.0,1.0,1.0,0.0,0.0,1.0,1.0,0,0,False,0.3,0.0,0.0,-0.2,0.15,0.0,-0.2,-0.15,0.0,,0,0,,,,,,False
49.83075213432312,robot_triangle,0,11,0,1.4433508429420456,-19.847090228247133,1.0,0.0,0.0,0.9886795446133386,0.150042520850462,1.0,1.0,1.0,0.0,0.0,1.0,1.0,0,0,False,0.3,0.0,0.0,-0.2,0.15,0.0,-0.2,-0.15,0.0,,0,0,,,,,,False
50.09144854545593,robot_triangle,0,11,0,1.3862405295184317,-19.940298924054048,1.0,0.0,0.0,0.9996939827060356,0.024737440072582585,1.0,1.0,1.0,0.0,0.0,1.0,1.0,0,0,False,0.3,0.0,0.0,-0.2,0.15,0.0,-0.2,-0.15,0.0,,0,0,,,,,,False
50.364768981933594,robot_triangle,0,11,0,1.3204951192984475,-20.002814706788634,1.0,0.0,0.0,0.9959492131773966,-0.0899175442910042,1.0,1.0,1.0,0.0,0.0,1.0,1.0,0,0,False,0.3,0.0,0.0,-0.2,0.15,0.0,-0.2,-0.15,0.0,,0,0,,,,,,False
50.540998458862305,robot_triangle,0,11,0,1.2368847571599197,-20.074003487485175,1.0,0.0,0.0,0.9837635129195698,-0.17946963712045425,1.0,1.0,1.0,0.0,0.0,1.0,1.0,0,0,False,0.3,0.0,0.0,-0.2,0.15,0.0,-0.2,-0.15,0.0,,0,0,,,,,,False
50.96765685081482,robot_triangle,0,11,0,1.1522454912626747,-20.155525064229955,1.0,0.0,0.0,0.9646205007805256,-0.2636423514421154,1.0,1.0,1.0,0.0,0.0,1.0,1.0,0,0,False,0.3,0.0,0.0,-0.2,0.15,0.0,-0.2,-0.15,0.0,,0,0,,,,,,False
51.10119938850403,robot_triangle,0,11,0,1.0693335393170242,-20.247244309038056,1.0,0.0,0.0,0.943958955202024,-0.3300628590040135,1.0,1.0,1.0,0.0,0.0,1.0,1.0,0,0,False,0.3,0.0,0.0,-0.2,0.15,0.0,-0.2,-0.15,0.0,,0,0,,,,,,False
51.3923978805542,robot_triangle,0,11,0,0.9713249877965565,-20.347347104953037,1.0,0.0,0.0,0.9227141905206975,-0.38548478907958744,1.0,1.0,1.0,0.0,0.0,1.0,1.0,0,0,False,0.3,0.0,0.0,-0.2,0.15,0.0,-0.2,-0.15,0.0,,0,0,,,,,,False
51.536808013916016,robot_triangle,0,11,0,0.8688061527852584,-20.45108563008989,1.0,0.0,0.0,0.9049086209084334,-0.42560590668551246,1.0,1.0,1.0,0.0,0.0,1.0,1.0,0,0,False,0.3,0.0,0.0,-0.2,0.15,0.0,-0.2,-0.15,0.0,,0,0,,,,,,False
51.895524978637695,robot_triangle,0,11,0,0.7612884292110128,-20.582137495835298,1.0,0.0,0.0,0.8876609458824074,-0.4604976060254274,1.0,1.0,1.0,0.0,0.0,1.0,1.0,0,0,False,0.3,0.0,0.0,-0.2,0.15,0.0,-0.2,-0.15,0.0,,0,0,,,,,,False
52.091994762420654,robot_triangle,0,11,0,0.6573444388388153,-20.727695401007505,1.0,0.0,0.0,0.8724445370675742,-0.4887131364521995,1.0,1.0,1.0,0.0,0.0,1.0,1.0,0,0,False,0.3,0.0,0.0,-0.2,0.15,0.0,-0.2,-0.15,0.0,,0,0,,,,,,False
52.30958580970764,robot_triangle,0,11,0,0.5477754648029964,-20.891852669789465,1.0,0.0,0.0,0.856187046425531,-0.5166659864294586,1.0,1.0,1.0,0.0,0.0,1.0,1.0,0,0,False,0.3,0.0,0.0,-0.2,0.15,0.0,-0.2,-0.15,0.0,,0,0,,,,,,False
52.57563352584839,robot_triangle,0,11,0,0.44346031668683,-21.059674488104637,1.0,0.0,0.0,0.8425364194680848,-0.5386393801699793,1.0,1.0,1.0,0.0,0.0,1.0,1.0,0,0,False,0.3,0.0,0.0,-0.2,0.15,0.0,-0.2,-0.15,0.0,,0,0,,,,,,False
52.791545391082764,robot_triangle,0,11,0,0.3465603720803576,-21.246495008140986,1.0,0.0,0.0,0.8291283089366647,-0.5590583577050133,1.0,1.0,1.0,0.0,0.0,1.0,1.0,0,0,False,0.3,0.0,0.0,-0.2,0.15,0.0,-0.2,-0.15,0.0,,0,0,,,,,,False
53.068254709243774,robot_triangle,0,11,0,0.2420717511066622,-21.455245476684244,1.0,0.0,0.0,0.8173558001070497,-0.5761332276751313,1.0,1.0,1.0,0.0,0.0,1.0,1.0,0,0,False,0.3,0.0,0.0,-0.2,0.15,0.0,-0.2,-0.15,0.0,,0,0,,,,,,False
53.325575828552246,robot_triangle,0,11,0,0.1596368377925012,-21.656369283341707,1.0,0.0,0.0,0.8046550580929762,-0.5937425683622399,1.0,1.0,1.0,0.0,0.0,1.0,1.0,0,0,False,0.3,0.0,0.0,-0.2,0.15,0.0,-0.2,-0.15,0.0,,0,0,,,,,,False
53.57185459136963,robot_triangle,0,11,0,0.07243688318662082,-21.867743180802524,1.0,0.0,0.0,0.7926810137081027,-0.6096366216909009,1.0,1.0,1.0,0.0,0.0,1.0,1.0,0,0,False,0.3,0.0,0.0,-0.2,0.15,0.0,-0.2,-0.15,0.0,,0,0,,,,,,False
53.84904098510742,robot_triangle,0,11,0,0.0004939715981416241,-22.087971648061377,1.0,0.0,0.0,0.7801364777791572,-0.6256093637712998,1.0,1.0,1.0,0.0,0.0,1.0,1.0,0,0,False,0.3,0.0,0.0,-0.2,0.15,0.0,-0.2,-0.15,0.0,,0,0,,,,,,False
54.064395904541016,robot_triangle,0,11,0,-0.059532705349544655,-22.31186654293434,1.0,0.0,0.0,0.7662356800972082,-0.6425596334551127,1.0,1.0,1.0,0.0,0.0,1.0,1.0,0,0,False,0.3,0.0,0.0,-0.2,0.15,0.0,-0.2,-0.15,0.0,,0,0,,,,,,False
54.35994577407837,robot_triangle,0,11,0,-0.12289277203469166,-22.543115032993732,1.0,0.0,0.0,0.7537494356638877,-0.6571619193443659,1.0,1.0,1.0,0.0,0.0,1.0,1.0,0,0,False,0.3,0.0,0.0,-0.2,0.15,0.0,-0.2,-0.15,0.0,,0,0,,,,,,False
54.58460068702698,robot_triangle,0,11,0,-0.17448292240898536,-22.762597362494965,1.0,0.0,0.0,0.7470957279579896,-0.6647164608063513,1.0,1.0,1.0,0.0,0.0,1.0,1.0,0,0,False,0.3,0.0,0.0,-0.2,0.15,0.0,-0.2,-0.15,0.0,,0,0,,,,,,False
54.86154127120972,robot_triangle,0,11,0,-0.21942630976117936,-22.961528007861595,1.0,0.0,0.0,0.7443751079690074,-0.6677617079738314,1.0,1.0,1.0,0.0,0.0,1.0,1.0,0,0,False,0.3,0.0,0.0,-0.2,0.15,0.0,-0.2,-0.15,0.0,,0,0,,,,,,False
55.23432230949402,robot_triangle,0,11,0,-0.2565208470609034,-23.12521004556869,1.0,0.0,0.0,0.7386252046799581,-0.6741163156395861,1.0,1.0,1.0,0.0,0.0,1.0,1.0,0,0,False,0.3,0.0,0.0,-0.2,0.15,0.0,-0.2,-0.15,0.0,,0,0,,,,,,False
55.40673804283142,robot_triangle,0,11,0,-0.2928499440420897,-23.255476318862033,1.0,0.0,0.0,0.7331440016550678,-0.6800734319448114,1.0,1.0,1.0,0.0,0.0,1.0,1.0,0,0,False,0.3,0.0,0.0,-0.2,0.15,0.0,-0.2,-0.15,0.0,,0,0,,,,,,False
55.58791446685791,robot_triangle,0,11,0,-0.3153095912497367,-23.375103034644162,1.0,0.0,0.0,0.7285190321718523,-0.6850255613941626,1.0,1.0,1.0,0.0,0.0,1.0,1.0,0,0,False,0.3,0.0,0.0,-0.2,0.15,0.0,-0.2,-0.15,0.0,,0,0,,,,,,False
55.81300950050354,robot_triangle,0,11,0,-0.32442468232561317,-23.4661211660638,1.0,0.0,0.0,0.7263354326594177,-0.6873404100323628,1.0,1.0,1.0,0.0,0.0,1.0,1.0,0,0,False,0.3,0.0,0.0,-0.2,0.15,0.0,-0.2,-0.15,0.0,,0,0,,,,,,False
56.08496809005737,robot_triangle,0,11,0,-0.344262366433678,-23.577640712734105,1.0,0.0,0.0,0.7254590924367887,-0.6882652869357794,1.0,1.0,1.0,0.0,0.0,1.0,1.0,0,0,False,0.3,0.0,0.0,-0.2,0.15,0.0,-0.2,-0.15,0.0,,0,0,,,,,,False
56.34456133842468,robot_triangle,0,11,0,-0.36468216890666544,-23.681770814529273,1.0,0.0,0.0,0.7184618908784393,-0.6955663241958868,1.0,1.0,1.0,0.0,0.0,1.0,1.0,0,0,False,0.3,0.0,0.0,-0.2,0.15,0.0,-0.2,-0.15,0.0,,0,0,,,,,,False
56.59148287773132,robot_triangle,0,11,0,-0.3725440993786419,-23.8066982086032,1.0,0.0,0.0,0.7080845817860459,-0.7061276265923041,1.0,1.0,1.0,0.0,0.0,1.0,1.0,0,0,False,0.3,0.0,0.0,-0.2,0.15,0.0,-0.2,-0.15,0.0,,0,0,,,,,,False
56.82334518432617,robot_triangle,0,11,0,-0.3726432061948487,-23.94085140652662,1.0,0.0,0.0,-0.7056342563570378,0.7085762459012087,1.0,1.0,1.0,0.0,0.0,1.0,1.0,0,0,False,0.3,0.0,0.0,-0.2,0.15,0.0,-0.2,-0.15,0.0,,0,0,,,,,,False
57.07963514328003,robot_triangle,0,11,0,-0.40061865861579005,-24.087815943290288,1.0,0.0,0.0,0.7139964727700825,-0.7001492961303902,1.0,1.0,1.0,0.0,0.0,1.0,1.0,0,0,False,0.3,0.0,0.0,-0.2,0.15,0.0,-0.2,-0.15,0.0,,0,0,,,,,,False
57.365004777908325,robot_triangle,0,11,0,-0.4433648632086444,-24.267988918811824,1.0,0.0,0.0,0.7321095405610428,-0.681186920470071,1.0,1.0,1.0,0.0,0.0,1.0,1.0,0,0,False,0.3,0.0,0.0,-0.2,0.15,0.0,-0.2,-0.15,0.0,,0,0,,,,,,False
57.57546782493591,robot_triangle,0,11,0,-0.49345829144137326,-24.445502810606644,1.0,0.0,0.0,0.7513039376213716,-0.6599563571287287,1.0,1.0,1.0,0.0,0.0,1.0,1.0,0,0,False,0.3,0.0,0.0,-0.2,0.15,0.0,-0.2,-0.15,0.0,,0,0,,,,,,False
57.8453004360199,robot_triangle,0,11,0,-0.5651545049065628,-24.625654074737692,1.0,0.0,0.0,0.7776307705730409,-0.6287212296860817,1.0,1.0,1.0,0.0,0.0,1.0,1.0,0,0,False,0.3,0.0,0.0,-0.2,0.15,0.0,-0.2,-0.15,0.0,,0,0,,,,,,False
58.05031895637512,robot_triangle,0,11,0,-0.6586693912050708,-24.826220867886803,1.0,0.0,0.0,0.796747786467077,-0.6043119763498098,1.0,1.0,1.0,0.0,0.0,1.0,1.0,0,0,False,0.3,0.0,0.0,-0.2,0.15,0.0,-0.2,-0.15,0.0,,0,0,,,,,,False
58.39783310890198,robot_triangle,0,11,0,-0.7532820435519298,-25.007236330488556,1.0,0.0,0.0,0.8135517933545876,-0.5814924587039237,1.0,1.0,1.0,0.0,0.0,1.0,1.0,0,0,False,0.3,0.0,0.0,-0.2,0.15,0.0,-0.2,-0.15,0.0,,0,0,,,,,,False
58.61065220832825,robot_triangle,0,11,0,-0.8611422922539852,-25.186494517146752,1.0,0.0,0.0,0.8268617099192622,-0.5624052921776198,1.0,1.0,1.0,0.0,0.0,1.0,1.0,0,0,False,0.3,0.0,0.0,-0.2,0.15,0.0,-0.2,-0.15,0.0,,0,0,,,,,,False
58.76753377914429,robot_triangle,0,11,0,-0.9758982212301153,-25.364387348822174,1.0,0.0,0.0,0.8369443636379114,-0.5472879791980924,1.0,1.0,1.0,0.0,0.0,1.0,1.0,0,0,False,0.3,0.0,0.0,-0.2,0.15,0.0,-0.2,-0.15,0.0,,0,0,,,,,,False
59.06477165222168,robot_triangle,0,11,0,-1.091344704248632,-25.53324112008168,1.0,0.0,0.0,0.8458234925605227,-0.5334628566570678,1.0,1.0,1.0,0.0,0.0,1.0,1.0,0,0,False,0.3,0.0,0.0,-0.2,0.15,0.0,-0.2,-0.15,0.0,,0,0,,,,,,False
59.33971452713013,robot_triangle,0,11,0,-1.21241489755244,-25.68890493278322,1.0,0.0,0.0,0.8534880437195722,-0.5211124247489571,1.0,1.0,1.0,0.0,0.0,1.0,1.0,0,0,False,0.3,0.0,0.0,-0.2,0.15,0.0,-0.2,-0.15,0.0,,0,0,,,,,,False
59.56282329559326,robot_triangle,0,11,0,-1.3283175032957795,-25.844877182874797,1.0,0.0,0.0,0.8602912250282457,-0.5098029110738779,1.0,1.0,1.0,0.0,0.0,1.0,1.0,0,0,False,0.3,0.0,0.0,-0.2,0.15,0.0,-0.2,-0.15,0.0,,0,0,,,,,,False
59.87381148338318,robot_triangle,0,11,0,-1.4493349680707797,-25.99898164172104,1.0,0.0,0.0,0.8674851415677465,-0.4974630932633967,1.0,1.0,1.0,0.0,0.0,1.0,1.0,0,0,False,0.3,0.0,0.0,-0.2,0.15,0.0,-0.2,-0.15,0.0,,0,0,,,,,,False
60.143972396850586,robot_triangle,0,11,0,-1.5707420666106906,-26.134406798731966,1.0,0.0,0.0,0.8736507170003575,-0.4865536195372113,1.0,1.0,1.0,0.0,0.0,1.0,1.0,0,0,False,0.3,0.0,0.0,-0.2,0.15,0.0,-0.2,-0.15,0.0,,0,0,,,,,,False
60.29837489128113,robot_triangle,0,11,0,-1.691623386058353,-26.274464188887286,1.0,0.0,0.0,0.8798505829689512,-0.47525040941507535,1.0,1.0,1.0,0.0,0.0,1.0,1.0,0,0,False,0.3,0.0,0.0,-0.2,0.15,0.0,-0.2,-0.15,0.0,,0,0,,,,,,False
60.618431091308594,robot_triangle,0,11,0,-1.807010342217822,-26.398969717675598,1.0,0.0,0.0,0.8849053518798605,-0.4657708859668885,1.0,1.0,1.0,0.0,0.0,1.0,1.0,0,0,False,0.3,0.0,0.0,-0.2,0.15,0.0,-0.2,-0.15,0.0,,0,0,,,,,,False
60.82365608215332,robot_triangle,0,11,0,-1.9277865721254566,-26.530002021725846,1.0,0.0,0.0,0.8895172956951962,-0.4569014999527852,1.0,1.0,1.0,0.0,0.0,1.0,1.0,0,0,False,0.3,0.0,0.0,-0.2,0.15,0.0,-0.2,-0.15,0.0,,0,0,,,,,,False
61.09728145599365,robot_triangle,0,11,0,-2.035454525360817,-26.64040172073754,1.0,0.0,0.0,0.8931527120462887,-0.4497535246825304,1.0,1.0,1.0,0.0,0.0,1.0,1.0,0,0,False,0.3,0.0,0.0,-0.2,0.15,0.0,-0.2,-0.15,0.0,,0,0,,,,,,False
61.49883484840393,robot_triangle,0,11,0,-2.1496749343250463,-26.761776791538885,1.0,0.0,0.0,0.8964941729370484,-0.44305552461279346,1.0,1.0,1.0,0.0,0.0,1.0,1.0,0,0,False,0.3,0.0,0.0,-0.2,0.15,0.0,-0.2,-0.15,0.0,,0,0,,,,,,False
61.704994678497314,robot_triangle,0,11,0,-2.262900744076596,-26.871138346388005,1.0,0.0,0.0,0.8993165866943337,-0.4372981556060499,1.0,1.0,1.0,0.0,0.0,1.0,1.0,0,0,False,0.3,0.0,0.0,-0.2,0.15,0.0,-0.2,-0.15,0.0,,0,0,,,,,,False
61.910998821258545,robot_triangle,0,11,0,-2.3771705739800497,-26.971753017844577,1.0,0.0,0.0,0.9023282166959155,-0.43104963676399144,1.0,1.0,1.0,0.0,0.0,1.0,1.0,0,0,False,0.3,0.0,0.0,-0.2,0.15,0.0,-0.2,-0.15,0.0,,0,0,,,,,,False
62.076735734939575,robot_triangle,0,11,0,-2.4839244449520517,-27.070942363083546,1.0,0.0,0.0,0.9051186021943642,-0.4251591654448017,1.0,1.0,1.0,0.0,0.0,1.0,1.0,0,0,False,0.3,0.0,0.0,-0.2,0.15,0.0,-0.2,-0.15,0.0,,0,0,,,,,,False
62.34959316253662,robot_triangle,0,11,0,-2.590803621510805,-27.178579131846075,1.0,0.0,0.0,0.9081095214602,-0.41873272744475887,1.0,1.0,1.0,0.0,0.0,1.0,1.0,0,0,False,0.3,0.0,0.0,-0.2,0.15,0.0,-0.2,-0.15,0.0,,0,0,,,,,,False
62.56813287734985,robot_triangle,0,11,0,-2.704175393350204,-27.278827115424814,1.0,0.0,0.0,0.9109655620317386,-0.41248241755521964,1.0,1.0,1.0,0.0,0.0,1.0,1.0,0,0,False,0.3,0.0,0.0,-0.2,0.15,0.0,-0.2,-0.15,0.0,,0,0,,,,,,False
62.875723123550415,robot_triangle,0,11,0,-2.818517776770498,-27.36758999527261,1.0,0.0,0.0,0.9140054593756334,-0.40570188591074774,1.0,1.0,1.0,0.0,0.0,1.0,1.0,0,0,False,0.3,0.0,0.0,-0.2,0.15,0.0,-0.2,-0.15,0.0,,0,0,,,,,,False
63.07926082611084,robot_triangle,0,11,0,-2.926485379758973,-27.46617870577038,1.0,0.0,0.0,0.9175107860306024,-0.3977108969056619,1.0,1.0,1.0,0.0,0.0,1.0,1.0,0,0,False,0.3,0.0,0.0,-0.2,0.15,0.0,-0.2,-0.15,0.0,,0,0,,,,,,False
63.35118889808655,robot_triangle,0,11,0,-3.0395957680546486,-27.564740197276485,1.0,0.0,0.0,0.921311417350393,-0.3888255036128803,1.0,1.0,1.0,0.0,0.0,1.0,1.0,0,0,False,0.3,0.0,0.0,-0.2,0.15,0.0,-0.2,-0.15,0.0,,0,0,,,,,,False
63.54300045967102,robot_triangle,0,11,0,-3.1538346739184444,-27.644293092374745,1.0,0.0,0.0,0.9248986777566081,-0.38021367135346157,1.0,1.0,1.0,0.0,0.0,1.0,1.0,0,0,False,0.3,0.0,0.0,-0.2,0.15,0.0,-0.2,-0.15,0.0,,0,0,,,,,,False
63.80666446685791,robot_triangle,0,11,0,-3.2683764727500884,-27.731100790636145,1.0,0.0,0.0,0.928924546065713,-0.3702690747505239,1.0,1.0,1.0,0.0,0.0,1.0,1.0,0,0,False,0.3,0.0,0.0,-0.2,0.15,0.0,-0.2,-0.15,0.0,,0,0,,,,,,False
64.2443778514862,robot_triangle,0,11,0,-3.3823236034920057,-27.809221740428754,1.0,0.0,0.0,0.9319328365211123,-0.36263092561682303,1.0,1.0,1.0,0.0,0.0,1.0,1.0,0,0,False,0.3,0.0,0.0,-0.2,0.15,0.0,-0.2,-0.15,0.0,,0,0,,,,,,False
64.4100341796875,robot_triangle,0,11,0,-3.49004988770801,-27.886607892435137,1.0,0.0,0.0,0.9324963690650852,-0.36117934835817034,1.0,1.0,1.0,0.0,0.0,1.0,1.0,0,0,False,0.3,0.0,0.0,-0.2,0.15,0.0,-0.2,-0.15,0.0,,0,0,,,,,,False
64.60210299491882,robot_triangle,0,11,0,-3.598228776354457,-27.975813743901206,1.0,0.0,0.0,0.9312433650554603,-0.364397852683276,1.0,1.0,1.0,0.0,0.0,1.0,1.0,0,0,False,0.3,0.0,0.0,-0.2,0.15,0.0,-0.2,-0.15,0.0,,0,0,,,,,,False
64.81809115409851,robot_triangle,0,11,0,-3.7118272081184136,-28.06533257374006,1.0,0.0,0.0,0.9284399330432459,-0.37148255777445743,1.0,1.0,1.0,0.0,0.0,1.0,1.0,0,0,False,0.3,0.0,0.0,-0.2,0.15,0.0,-0.2,-0.15,0.0,,0,0,,,,,,False
65.02030158042908,robot_triangle,0,11,0,-3.8194432950793518,-28.1548585605927,1.0,0.0,0.0,0.9248027216280392,-0.3804470082276525,1.0,1.0,1.0,0.0,0.0,1.0,1.0,0,0,False,0.3,0.0,0.0,-0.2,0.15,0.0,-0.2,-0.15,0.0,,0,0,,,,,,False
65.35000443458557,robot_triangle,0,11,0,-3.9332345206135066,-28.265093499247172,1.0,0.0,0.0,0.9194897977836918,-0.39311386616565125,1.0,1.0,1.0,0.0,0.0,1.0,1.0,0,0,False,0.3,0.0,0.0,-0.2,0.15,0.0,-0.2,-0.15,0.0,,0,0,,,,,,False
65.632568359375,robot_triangle,0,11,0,-4.040230129594042,-28.35643708677721,1.0,0.0,0.0,0.914730303501914,-0.40406493519643133,1.0,1.0,1.0,0.0,0.0,1.0,1.0,0,0,False,0.3,0.0,0.0,-0.2,0.15,0.0,-0.2,-0.15,0.0,,0,0,,,,,,False
65.79069209098816,robot_triangle,0,11,0,-4.1468572438230895,-28.465877743682938,1.0,0.0,0.0,0.9086675815050228,-0.41752033042932496,1.0,1.0,1.0,0.0,0.0,1.0,1.0,0,0,False,0.3,0.0,0.0,-0.2,0.15,0.0,-0.2,-0.15,0.0,,0,0,,,,,,False
66.08169507980347,robot_triangle,0,11,0,-4.247003544849721,-28.577578844873898,1.0,0.0,0.0,0.9026629887406972,-0.430348148314492,1.0,1.0,1.0,0.0,0.0,1.0,1.0,0,0,False,0.3,0.0,0.0,-0.2,0.15,0.0,-0.2,-0.15,0.0,,0,0,,,,,,False
66.33279347419739,robot_triangle,0,11,0,-4.3524250672788884,-28.688696724002416,1.0,0.0,0.0,0.8954757213218075,-0.44511035993693576,1.0,1.0,1.0,0.0,0.0,1.0,1.0,0,0,False,0.3,0.0,0.0,-0.2,0.15,0.0,-0.2,-0.15,0.0,,0,0,,,,,,False
66.55251979827881,robot_triangle,0,11,0,-4.450494909024858,-28.808508721144925,1.0,0.0,0.0,0.8891559713405366,-0.4576042598462857,1.0,1.0,1.0,0.0,0.0,1.0,1.0,0,0,False,0.3,0.0,0.0,-0.2,0.15,0.0,-0.2,-0.15,0.0,,0,0,,,,,,False
66.8464126586914,robot_triangle,0,11,0,-4.551539458281163,-28.933484852400902,1.0,0.0,0.0,0.882506365161665,-0.4703004523165441,1.0,1.0,1.0,0.0,0.0,1.0,1.0,0,0,False,0.3,0.0,0.0,-0.2,0.15,0.0,-0.2,-0.15,0.0,,0,0,,,,,,False
67.10664987564087,robot_triangle,0,11,0,-4.644284830589343,-29.056451306378644,1.0,0.0,0.0,0.8754576340874944,-0.48329486953404194,1.0,1.0,1.0,0.0,0.0,1.0,1.0,0,0,False,0.3,0.0,0.0,-0.2,0.15,0.0,-0.2,-0.15,0.0,,0,0,,,,,,False
67.37899732589722,robot_triangle,0,11,0,-4.73601272750655,-29.178839029176782,1.0,0.0,0.0,0.8682035276882435,-0.49620825719619926,1.0,1.0,1.0,0.0,0.0,1.0,1.0,0,0,False,0.3,0.0,0.0,-0.2,0.15,0.0,-0.2,-0.15,0.0,,0,0,,,,,,False
67.66250133514404,robot_triangle,0,11,0,-4.822441126524989,-29.312620241146107,1.0,0.0,0.0,0.8607175884622768,-0.5090827368038351,1.0,1.0,1.0,0.0,0.0,1.0,1.0,0,0,False,0.3,0.0,0.0,-0.2,0.15,0.0,-0.2,-0.15,0.0,,0,0,,,,,,False
