time,ns,id,type,action,pose.position.x,pose.position.y,pose.position.z,pose.orientation.x,pose.orientation.y,pose.orientation.z,pose.orientation.w,scale.x,scale.y,scale.z,color.r,color.g,color.b,color.a,lifetime.sec,lifetime.nanosec,frame_locked,points[0].x,points[0].y,points[0].z,points[1].x,points[1].y,points[1].z,points[2].x,points[2].y,points[2].z,texture_resource,texture.header.stamp.sec,texture.header.stamp.nanosec,texture.header.frame_id,texture.format,text,mesh_resource,mesh_file.filename,mesh_use_embedded_materials
1.5303750038146973,robot_triangle,0,11,0,-5.319646751713165,-22.933267599782443,1.0,0.0,0.0,0.5581728564957787,0.8297246906482552,1.0,1.0,1.0,0.0,0.0,1.0,1.0,0,0,False,0.3,0.0,0.0,-0.2,0.15,0.0,-0.2,-0.15,0.0,,0,0,,,,,,False
1.657827615737915,robot_triangle,0,11,0,-5.255938046938638,-22.86595755362466,1.0,0.0,0.0,0.5359602171356482,0.8442432384377792,1.0,1.0,1.0,0.0,0.0,1.0,1.0,0,0,False,0.3,0.0,0.0,-0.2,0.15,0.0,-0.2,-0.15,0.0,,0,0,,,,,,False
1.843064785003662,robot_triangle,0,11,0,-5.189705904712541,-22.79744751782353,1.0,0.0,0.0,0.5122865975859368,0.8588145561958207,1.0,1.0,1.0,0.0,0.0,1.0,1.0,0,0,False,0.3,0.0,0.0,-0.2,0.15,0.0,-0.2,-0.15,0.0,,0,0,,,,,,False
2.152416944503784,robot_triangle,0,11,0,-5.109174040995844,-22.719001732252273,1.0,0.0,0.0,0.48561767565983455,0.8741713064878872,1.0,1.0,1.0,0.0,0.0,1.0,1.0,0,0,False,0.3,0.0,0.0,-0.2,0.15,0.0,-0.2,-0.15,0.0,,0,0,,,,,,False
2.451263666152954,robot_triangle,0,11,0,-5.016982940088786,-22.639861541100053,1.0,0.0,0.0,0.4607211770121402,0.887544926779793,1.0,1.0,1.0,0.0,0.0,1.0,1.0,0,0,False,0.3,0.0,0.0,-0.2,0.15,0.0,-0.2,-0.15,0.0,,0,0,,,,,,False
2.7509777545928955,robot_triangle,0,11,0,-4.907838995657721,-22.56170552040061,1.0,0.0,0.0,0.4340592254080727,0.9008843371033509,1.0,1.0,1.0,0.0,0.0,1.0,1.0,0,0,False,0.3,0.0,0.0,-0.2,0.15,0.0,-0.2,-0.15,0.0,,0,0,,,,,,False
2.8626339435577393,robot_triangle,0,11,0,-4.798364504738604,-22.481845565391417,1.0,0.0,0.0,0.40930466472827387,0.9123977704004298,1.0,1.0,1.0,0.0,0.0,1.0,1.0,0,0,False,0.3,0.0,0.0,-0.2,0.15,0.0,-0.2,-0.15,0.0,,0,0,,,,,,False
3.1739437580108643,robot_triangle,0,11,0,-4.675386875143705,-22.40447811003134,1.0,0.0,0.0,0.38264226480765534,0.923896583597357,1.0,1.0,1.0,0.0,0.0,1.0,1.0,0,0,False,0.3,0.0,0.0,-0.2,0.15,0.0,-0.2,-0.15,0.0,,0,0,,,,,,False
3.3677995204925537,robot_triangle,0,11,0,-4.545136630881888,-22.325263779253977,1.0,0.0,0.0,0.35877798798516075,0.9334229241545977,1.0,1.0,1.0,0.0,0.0,1.0,1.0,0,0,False,0.3,0.0,0.0,-0.2,0.15,0.0,-0.2,-0.15,0.0,,0,0,,,,,,False
3.6202988624572754,robot_triangle,0,11,0,-4.407522494339075,-22.258410609951557,1.0,0.0,0.0,0.3339085992360063,0.9426054568886434,1.0,1.0,1.0,0.0,0.0,1.0,1.0,0,0,False,0.3,0.0,0.0,-0.2,0.15,0.0,-0.2,-0.15,0.0,,0,0,,,,,,False
3.859773635864258,robot_triangle,0,11,0,-4.2630232416377405,-22.1922262487918,1.0,0.0,0.0,0.3099218939435397,0.9507620205153597,1.0,1.0,1.0,0.0,0.0,1.0,1.0,0,0,False,0.3,0.0,0.0,-0.2,0.15,0.0,-0.2,-0.15,0.0,,0,0,,,,,,False
4.115182161331177,robot_triangle,0,11,0,-4.111768057674252,-22.125714866146136,1.0,0.0,0.0,0.2883961382661995,0.9575111839728783,1.0,1.0,1.0,0.0,0.0,1.0,1.0,0,0,False,0.3,0.0,0.0,-0.2,0.15,0.0,-0.2,-0.15,0.0,,0,0,,,,,,False
4.3816978931427,robot_triangle,0,11,0,-3.960503574886845,-22.070701626297048,1.0,0.0,0.0,0.2697020063243334,0.9629438341796625,1.0,1.0,1.0,0.0,0.0,1.0,1.0,0,0,False,0.3,0.0,0.0,-0.2,0.15,0.0,-0.2,-0.15,0.0,,0,0,,,,,,False
4.620979309082031,robot_triangle,0,11,0,-3.8126778695977657,-22.005826229507043,1.0,0.0,0.0,0.25941539427523813,0.9657658376713388,1.0,1.0,1.0,0.0,0.0,1.0,1.0,0,0,False,0.3,0.0,0.0,-0.2,0.15,0.0,-0.2,-0.15,0.0,,0,0,,,,,,False
4.870771646499634,robot_triangle,0,11,0,-3.6819647244172167,-21.960956913295558,1.0,0.0,0.0,0.25238187700514564,0.9676277115499325,1.0,1.0,1.0,0.0,0.0,1.0,1.0,0,0,False,0.3,0.0,0.0,-0.2,0.15,0.0,-0.2,-0.15,0.0,,0,0,,,,,,False
5.134400367736816,robot_triangle,0,11,0,-3.5449934436079285,-21.906095301302827,1.0,0.0,0.0,0.2422945873524952,0.9702027277531661,1.0,1.0,1.0,0.0,0.0,1.0,1.0,0,0,False,0.3,0.0,0.0,-0.2,0.15,0.0,-0.2,-0.15,0.0,,0,0,,,,,,False
5.469328165054321,robot_triangle,0,11,0,-3.4090108693416323,-21.861916143892184,1.0,0.0,0.0,0.22939768077378295,0.9733327817635701,1.0,1.0,1.0,0.0,0.0,1.0,1.0,0,0,False,0.3,0.0,0.0,-0.2,0.15,0.0,-0.2,-0.15,0.0,,0,0,,,,,,False
5.6605753898620605,robot_triangle,0,11,0,-3.259430382283562,-21.8186446768412,1.0,0.0,0.0,0.21263444408384477,0.9771318197608521,1.0,1.0,1.0,0.0,0.0,1.0,1.0,0,0,False,0.3,0.0,0.0,-0.2,0.15,0.0,-0.2,-0.15,0.0,,0,0,,,,,,False
5.9236979484558105,robot_triangle,0,11,0,-3.1024240188224037,-21.785053697596897,1.0,0.0,0.0,0.19663392750002734,0.980476975025887,1.0,1.0,1.0,0.0,0.0,1.0,1.0,0,0,False,0.3,0.0,0.0,-0.2,0.15,0.0,-0.2,-0.15,0.0,,0,0,,,,,,False
6.140700101852417,robot_triangle,0,11,0,-2.944277560725866,-21.753291814242722,1.0,0.0,0.0,0.17831950950590705,0.9839726381000504,1.0,1.0,1.0,0.0,0.0,1.0,1.0,0,0,False,0.3,0.0,0.0,-0.2,0.15,0.0,-0.2,-0.15,0.0,,0,0,,,,,,False
6.377809524536133,robot_triangle,0,11,0,-2.780191610954701,-21.721649633773374,1.0,0.0,0.0,0.15931260103903735,0.9872281879840022,1.0,1.0,1.0,0.0,0.0,1.0,1.0,0,0,False,0.3,0.0,0.0,-0.2,0.15,0.0,-0.2,-0.15,0.0,,0,0,,,,,,False
6.6855456829071045,robot_triangle,0,11,0,-2.615406467509656,-21.699500166172307,1.0,0.0,0.0,0.14138821568222767,0.9899542274601366,1.0,1.0,1.0,0.0,0.0,1.0,1.0,0,0,False,0.3,0.0,0.0,-0.2,0.15,0.0,-0.2,-0.15,0.0,,0,0,,,,,,False
6.893187522888184,robot_triangle,0,11,0,-2.4453439484482056,-21.67858265863906,1.0,0.0,0.0,0.126968938704267,0.9919066934970809,1.0,1.0,1.0,0.0,0.0,1.0,1.0,0,0,False,0.3,0.0,0.0,-0.2,0.15,0.0,-0.2,-0.15,0.0,,0,0,,,,,,False
7.11483359336853,robot_triangle,0,11,0,-2.288061101850723,-21.66786607015491,1.0,0.0,0.0,0.11542909704889245,0.9933157219909878,1.0,1.0,1.0,0.0,0.0,1.0,1.0,0,0,False,0.3,0.0,0.0,-0.2,0.15,0.0,-0.2,-0.15,0.0,,0,0,,,,,,False
7.362382411956787,robot_triangle,0,11,0,-2.137832624942374,-21.65757961397526,1.0,0.0,0.0,0.10752438974129884,0.9942024469949575,1.0,1.0,1.0,0.0,0.0,1.0,1.0,0,0,False,0.3,0.0,0.0,-0.2,0.15,0.0,-0.2,-0.15,0.0,,0,0,,,,,,False
7.661030292510986,robot_triangle,0,11,0,-1.9966138483612466,-21.64773428243726,1.0,0.0,0.0,0.100500859507816,0.9949369714902498,1.0,1.0,1.0,0.0,0.0,1.0,1.0,0,0,False,0.3,0.0,0.0,-0.2,0.15,0.0,-0.2,-0.15,0.0,,0,0,,,,,,False
7.925004005432129,robot_triangle,0,11,0,-1.8603901161163812,-21.63712250502799,1.0,0.0,0.0,0.09496915380555154,0.9954802156876135,1.0,1.0,1.0,0.0,0.0,1.0,1.0,0,0,False,0.3,0.0,0.0,-0.2,0.15,0.0,-0.2,-0.15,0.0,,0,0,,,,,,False
8.125873327255249,robot_triangle,0,11,0,-1.733218693144194,-21.62677906551888,1.0,0.0,0.0,0.09005876574438819,0.9959364531497968,1.0,1.0,1.0,0.0,0.0,1.0,1.0,0,0,False,0.3,0.0,0.0,-0.2,0.15,0.0,-0.2,-0.15,0.0,,0,0,,,,,,False
8.372848510742188,robot_triangle,0,11,0,-1.6056487050259767,-21.626490864054293,1.0,0.0,0.0,0.085934261072603,0.9963008093813362,1.0,1.0,1.0,0.0,0.0,1.0,1.0,0,0,False,0.3,0.0,0.0,-0.2,0.15,0.0,-0.2,-0.15,0.0,,0,0,,,,,,False
8.640621662139893,robot_triangle,0,11,0,-1.484399733285236,-21.616841895025985,1.0,0.0,0.0,0.0816151201457943,0.996663921371486,1.0,1.0,1.0,0.0,0.0,1.0,1.0,0,0,False,0.3,0.0,0.0,-0.2,0.15,0.0,-0.2,-0.15,0.0,,0,0,,,,,,False
8.903048992156982,robot_triangle,0,11,0,-1.3645263879208176,-21.61601200740111,1.0,0.0,0.0,0.07767392836353812,0.9969788166518765,1.0,1.0,1.0,0.0,0.0,1.0,1.0,0,0,False,0.3,0.0,0.0,-0.2,0.15,0.0,-0.2,-0.15,0.0,,0,0,,,,,,False
9.149741411209106,robot_triangle,0,11,0,-1.2440867043794817,-21.60640170049002,1.0,0.0,0.0,0.0743888561809837,0.997229310678384,1.0,1.0,1.0,0.0,0.0,1.0,1.0,0,0,False,0.3,0.0,0.0,-0.2,0.15,0.0,-0.2,-0.15,0.0,,0,0,,,,,,False
9.373931646347046,robot_triangle,0,11,0,-1.130168893902087,-21.60583224607621,1.0,0.0,0.0,0.0714638868925095,0.9974431877907707,1.0,1.0,1.0,0.0,0.0,1.0,1.0,0,0,False,0.3,0.0,0.0,-0.2,0.15,0.0,-0.2,-0.15,0.0,,0,0,,,,,,False
9.618696689605713,robot_triangle,0,11,0,-1.0167656741407383,-21.605771201245478,1.0,0.0,0.0,0.06789071942029255,0.997692763438021,1.0,1.0,1.0,0.0,0.0,1.0,1.0,0,0,False,0.3,0.0,0.0,-0.2,0.15,0.0,-0.2,-0.15,0.0,,0,0,,,,,,False
9.896278858184814,robot_triangle,0,11,0,-0.9161393947356821,-21.595878598300324,1.0,0.0,0.0,0.06479318999372603,0.9978987135628731,1.0,1.0,1.0,0.0,0.0,1.0,1.0,0,0,False,0.3,0.0,0.0,-0.2,0.15,0.0,-0.2,-0.15,0.0,,0,0,,,,,,False
10.208987712860107,robot_triangle,0,11,0,-0.8106059109734151,-21.594869033956677,1.0,0.0,0.0,0.06145458699879408,0.9981098805927169,1.0,1.0,1.0,0.0,0.0,1.0,1.0,0,0,False,0.3,0.0,0.0,-0.2,0.15,0.0,-0.2,-0.15,0.0,,0,0,,,,,,False
10.370025157928467,robot_triangle,0,11,0,-0.709773957937089,-21.594777870267954,1.0,0.0,0.0,0.06470116489610667,0.9979046844569309,1.0,1.0,1.0,0.0,0.0,1.0,1.0,0,0,False,0.3,0.0,0.0,-0.2,0.15,0.0,-0.2,-0.15,0.0,,0,0,,,,,,False
10.664177894592285,robot_triangle,0,11,0,-0.6007815379098989,-21.593440414111843,1.0,0.0,0.0,0.07629294913778203,0.9970854456423781,1.0,1.0,1.0,0.0,0.0,1.0,1.0,0,0,False,0.3,0.0,0.0,-0.2,0.15,0.0,-0.2,-0.15,0.0,,0,0,,,,,,False
10.898239850997925,robot_triangle,0,11,0,-0.4713844256121751,-21.57087513386032,1.0,0.0,0.0,0.09479127633161477,0.9954971692232095,1.0,1.0,1.0,0.0,0.0,1.0,1.0,0,0,False,0.3,0.0,0.0,-0.2,0.15,0.0,-0.2,-0.15,0.0,,0,0,,,,,,False
11.198977947235107,robot_triangle,0,11,0,-0.34169160720595915,-21.537660214863745,1.0,0.0,0.0,0.11469175346798553,0.9934011282892923,1.0,1.0,1.0,0.0,0.0,1.0,1.0,0,0,False,0.3,0.0,0.0,-0.2,0.15,0.0,-0.2,-0.15,0.0,,0,0,,,,,,False
11.463652849197388,robot_triangle,0,11,0,-0.20581199434143288,-21.502972542330333,1.0,0.0,0.0,0.13557006432011068,0.9907677617182753,1.0,1.0,1.0,0.0,0.0,1.0,1.0,0,0,False,0.3,0.0,0.0,-0.2,0.15,0.0,-0.2,-0.15,0.0,,0,0,,,,,,False
11.616300344467163,robot_triangle,0,11,0,-0.06328018423840268,-21.45761156203602,1.0,0.0,0.0,0.1563723981184604,0.9876981690307428,1.0,1.0,1.0,0.0,0.0,1.0,1.0,0,0,False,0.3,0.0,0.0,-0.2,0.15,0.0,-0.2,-0.15,0.0,,0,0,,,,,,False
11.894447326660156,robot_triangle,0,11,0,0.08537579840382885,-21.411727133503064,1.0,0.0,0.0,0.17403880563770674,0.9847387948751692,1.0,1.0,1.0,0.0,0.0,1.0,1.0,0,0,False,0.3,0.0,0.0,-0.2,0.15,0.0,-0.2,-0.15,0.0,,0,0,,,,,,False
12.143486261367798,robot_triangle,0,11,0,0.22844832600054954,-21.35642796525446,1.0,0.0,0.0,0.19273256538215172,0.9812513226697912,1.0,1.0,1.0,0.0,0.0,1.0,1.0,0,0,False,0.3,0.0,0.0,-0.2,0.15,0.0,-0.2,-0.15,0.0,,0,0,,,,,,False
12.397212266921997,robot_triangle,0,11,0,0.37754587464867706,-21.300138922660313,1.0,0.0,0.0,0.20936125707779452,0.9778383629387863,1.0,1.0,1.0,0.0,0.0,1.0,1.0,0,0,False,0.3,0.0,0.0,-0.2,0.15,0.0,-0.2,-0.15,0.0,,0,0,,,,,,False
12.623695611953735,robot_triangle,0,11,0,0.5333906614220408,-21.233249195236233,1.0,0.0,0.0,0.22549981820693615,0.9742432098755622,1.0,1.0,1.0,0.0,0.0,1.0,1.0,0,0,False,0.3,0.0,0.0,-0.2,0.15,0.0,-0.2,-0.15,0.0,,0,0,,,,,,False
12.845529079437256,robot_triangle,0,11,0,0.6764746633652475,-21.165738359204635,1.0,0.0,0.0,0.23999055842297903,0.9707752221126303,1.0,1.0,1.0,0.0,0.0,1.0,1.0,0,0,False,0.3,0.0,0.0,-0.2,0.15,0.0,-0.2,-0.15,0.0,,0,0,,,,,,False
13.140311479568481,robot_triangle,0,11,0,0.819082648765652,-21.088246607264857,1.0,0.0,0.0,0.2552001001423081,0.9668882608075019,1.0,1.0,1.0,0.0,0.0,1.0,1.0,0,0,False,0.3,0.0,0.0,-0.2,0.15,0.0,-0.2,-0.15,0.0,,0,0,,,,,,False
13.378905057907104,robot_triangle,0,11,0,0.9681827497843938,-21.009692080686957,1.0,0.0,0.0,0.2688527934318949,0.9631812786095185,1.0,1.0,1.0,0.0,0.0,1.0,1.0,0,0,False,0.3,0.0,0.0,-0.2,0.15,0.0,-0.2,-0.15,0.0,,0,0,,,,,,False
13.648383617401123,robot_triangle,0,11,0,1.1181040364436556,-20.930630807660265,1.0,0.0,0.0,0.2834579382749003,0.9589846699655542,1.0,1.0,1.0,0.0,0.0,1.0,1.0,0,0,False,0.3,0.0,0.0,-0.2,0.15,0.0,-0.2,-0.15,0.0,,0,0,,,,,,False
13.866687297821045,robot_triangle,0,11,0,1.2545082894660358,-20.84184599721252,1.0,0.0,0.0,0.2972878114599694,0.9547879121340727,1.0,1.0,1.0,0.0,0.0,1.0,1.0,0,0,False,0.3,0.0,0.0,-0.2,0.15,0.0,-0.2,-0.15,0.0,,0,0,,,,,,False
14.171061277389526,robot_triangle,0,11,0,1.3965966605063656,-20.742140516248767,1.0,0.0,0.0,0.3100615584514385,0.9507164824334672,1.0,1.0,1.0,0.0,0.0,1.0,1.0,0,0,False,0.3,0.0,0.0,-0.2,0.15,0.0,-0.2,-0.15,0.0,,0,0,,,,,,False
14.401732683181763,robot_triangle,0,11,0,1.5376782163645453,-20.642164018747728,1.0,0.0,0.0,0.3228599512331244,0.9464467506889886,1.0,1.0,1.0,0.0,0.0,1.0,1.0,0,0,False,0.3,0.0,0.0,-0.2,0.15,0.0,-0.2,-0.15,0.0,,0,0,,,,,,False
14.666021585464478,robot_triangle,0,11,0,1.6808215988183264,-20.540861210848114,1.0,0.0,0.0,0.33570028881918457,0.9419688509110671,1.0,1.0,1.0,0.0,0.0,1.0,1.0,0,0,False,0.3,0.0,0.0,-0.2,0.15,0.0,-0.2,-0.15,0.0,,0,0,,,,,,False
14.909437656402588,robot_triangle,0,11,0,1.8181821754962215,-20.428852400422546,1.0,0.0,0.0,0.34937583409433426,0.9369826714250847,1.0,1.0,1.0,0.0,0.0,1.0,1.0,0,0,False,0.3,0.0,0.0,-0.2,0.15,0.0,-0.2,-0.15,0.0,,0,0,,,,,,False
15.14353346824646,robot_triangle,0,11,0,1.947199877245704,-20.316637270612784,1.0,0.0,0.0,0.36309378755509636,0.9317525966901807,1.0,1.0,1.0,0.0,0.0,1.0,1.0,0,0,False,0.3,0.0,0.0,-0.2,0.15,0.0,-0.2,-0.15,0.0,,0,0,,,,,,False
15.48000454902649,robot_triangle,0,11,0,2.0809608139148383,-20.20519705559768,1.0,0.0,0.0,0.3760945903812857,0.9265812749489021,1.0,1.0,1.0,0.0,0.0,1.0,1.0,0,0,False,0.3,0.0,0.0,-0.2,0.15,0.0,-0.2,-0.15,0.0,,0,0,,,,,,False
15.648894548416138,robot_triangle,0,11,0,2.204096745844115,-20.082499673117532,1.0,0.0,0.0,0.3901214023101592,0.9207634286066942,1.0,1.0,1.0,0.0,0.0,1.0,1.0,0,0,False,0.3,0.0,0.0,-0.2,0.15,0.0,-0.2,-0.15,0.0,,0,0,,,,,,False
15.921350479125977,robot_triangle,0,11,0,2.3254240202726915,-19.95941053059527,1.0,0.0,0.0,0.40289598791283165,0.9152457718688153,1.0,1.0,1.0,0.0,0.0,1.0,1.0,0,0,False,0.3,0.0,0.0,-0.2,0.15,0.0,-0.2,-0.15,0.0,,0,0,,,,,,False
16.166097402572632,robot_triangle,0,11,0,2.4522779223674944,-19.826850744998886,1.0,0.0,0.0,0.4167386574601585,0.9090263425106583,1.0,1.0,1.0,0.0,0.0,1.0,1.0,0,0,False,0.3,0.0,0.0,-0.2,0.15,0.0,-0.2,-0.15,0.0,,0,0,,,,,,False
16.383240461349487,robot_triangle,0,11,0,2.5744769284096902,-19.691949962224328,1.0,0.0,0.0,0.42958067209923234,0.9030284857958645,1.0,1.0,1.0,0.0,0.0,1.0,1.0,0,0,False,0.3,0.0,0.0,-0.2,0.15,0.0,-0.2,-0.15,0.0,,0,0,,,,,,False
16.679001331329346,robot_triangle,0,11,0,2.6848845441546914,-19.541426107406714,1.0,0.0,0.0,0.4629153898530988,0.8864024717007244,1.0,1.0,1.0,0.0,0.0,1.0,1.0,0,0,False,0.3,0.0,0.0,-0.2,0.15,0.0,-0.2,-0.15,0.0,,0,0,,,,,,False
16.89513349533081,robot_triangle,0,11,0,2.7897633060937594,-19.338011658928885,1.0,0.0,0.0,0.5208052482081832,0.8536755199950463,1.0,1.0,1.0,0.0,0.0,1.0,1.0,0,0,False,0.3,0.0,0.0,-0.2,0.15,0.0,-0.2,-0.15,0.0,,0,0,,,,,,False
17.195188999176025,robot_triangle,0,11,0,2.8283627567496463,-19.130318442646896,1.0,0.0,0.0,0.603291993017095,0.7975203891822837,1.0,1.0,1.0,0.0,0.0,1.0,1.0,0,0,False,0.3,0.0,0.0,-0.2,0.15,0.0,-0.2,-0.15,0.0,,0,0,,,,,,False
17.374820232391357,robot_triangle,0,11,0,2.788697438921315,-18.97404903138666,1.0,0.0,0.0,0.693194178067009,0.7207508803282893,1.0,1.0,1.0,0.0,0.0,1.0,1.0,0,0,False,0.3,0.0,0.0,-0.2,0.15,0.0,-0.2,-0.15,0.0,,0,0,,,,,,False
17.7236328125,robot_triangle,0,11,0,2.6892099225360155,-18.854630345135426,1.0,0.0,0.0,0.7923525320878004,0.6100634925104527,1.0,1.0,1.0,0.0,0.0,1.0,1.0,0,0,False,0.3,0.0,0.0,-0.2,0.15,0.0,-0.2,-0.15,0.0,,0,0,,,,,,False
17.86425232887268,robot_triangle,0,11,0,2.564616378195277,-18.77063706333956,1.0,0.0,0.0,0.8704931968219602,0.49218044890739404,1.0,1.0,1.0,0.0,0.0,1.0,1.0,0,0,False,0.3,0.0,0.0,-0.2,0.15,0.0,-0.2,-0.15,0.0,,0,0,,,,,,False
18.183823347091675,robot_triangle,0,11,0,2.4397697588623237,-18.743097456639813,1.0,0.0,0.0,0.9356444964895507,0.3529438711591619,1.0,1.0,1.0,0.0,0.0,1.0,1.0,0,0,False,0.3,0.0,0.0,-0.2,0.15,0.0,-0.2,-0.15,0.0,,0,0,,,,,,False
18.367279529571533,robot_triangle,0,11,0,2.3123219097671543,-18.76126496103195,1.0,0.0,0.0,0.9751141756384284,0.2217032802395766,1.0,1.0,1.0,0.0,0.0,1.0,1.0,0,0,False,0.3,0.0,0.0,-0.2,0.15,0.0,-0.2,-0.15,0.0,,0,0,,,,,,False
18.675426959991455,robot_triangle,0,11,0,2.212007281204398,-18.811235478325184,1.0,0.0,0.0,0.9966909707399101,0.08128412419123279,1.0,1.0,1.0,0.0,0.0,1.0,1.0,0,0,False,0.3,0.0,0.0,-0.2,0.15,0.0,-0.2,-0.15,0.0,,0,0,,,,,,False
18.892762660980225,robot_triangle,0,11,0,2.1119957894349692,-18.86215334160041,1.0,0.0,0.0,0.9986981172703633,-0.05101049461269321,1.0,1.0,1.0,0.0,0.0,1.0,1.0,0,0,False,0.3,0.0,0.0,-0.2,0.15,0.0,-0.2,-0.15,0.0,,0,0,,,,,,False
19.169727087020874,robot_triangle,0,11,0,2.0054341182830457,-18.933672402662243,1.0,0.0,0.0,0.9874150959005482,-0.1581500186143246,1.0,1.0,1.0,0.0,0.0,1.0,1.0,0,0,False,0.3,0.0,0.0,-0.2,0.15,0.0,-0.2,-0.15,0.0,,0,0,,,,,,False
19.361048460006714,robot_triangle,0,11,0,1.8814050215498312,-19.015483662766812,1.0,0.0,0.0,0.9688087682285718,-0.24780954502084368,1.0,1.0,1.0,0.0,0.0,1.0,1.0,0,0,False,0.3,0.0,0.0,-0.2,0.15,0.0,-0.2,-0.15,0.0,,0,0,,,,,,False
19.65545630455017,robot_triangle,0,11,0,1.7618571362722628,-19.104235685813762,1.0,0.0,0.0,0.947015775394303,-0.32118705010371607,1.0,1.0,1.0,0.0,0.0,1.0,1.0,0,0,False,0.3,0.0,0.0,-0.2,0.15,0.0,-0.2,-0.15,0.0,,0,0,,,,,,False
19.912898540496826,robot_triangle,0,11,0,1.6336026064089098,-19.195554087587098,1.0,0.0,0.0,0.9306386391924032,-0.36593950762675503,1.0,1.0,1.0,0.0,0.0,1.0,1.0,0,0,False,0.3,0.0,0.0,-0.2,0.15,0.0,-0.2,-0.15,0.0,,0,0,,,,,,False
20.130244970321655,robot_triangle,0,11,0,1.520862122558085,-19.293723868495213,1.0,0.0,0.0,0.9173786839798806,-0.39801551499827514,1.0,1.0,1.0,0.0,0.0,1.0,1.0,0,0,False,0.3,0.0,0.0,-0.2,0.15,0.0,-0.2,-0.15,0.0,,0,0,,,,,,False
20.366852283477783,robot_triangle,0,11,0,1.4120194444855771,-19.390187599766325,1.0,0.0,0.0,0.9081715578277246,-0.4185981623857943,1.0,1.0,1.0,0.0,0.0,1.0,1.0,0,0,False,0.3,0.0,0.0,-0.2,0.15,0.0,-0.2,-0.15,0.0,,0,0,,,,,,False
20.661279678344727,robot_triangle,0,11,0,1.2911459284683942,-19.509282421434786,1.0,0.0,0.0,0.8992090970429558,-0.4375191422043063,1.0,1.0,1.0,0.0,0.0,1.0,1.0,0,0,False,0.3,0.0,0.0,-0.2,0.15,0.0,-0.2,-0.15,0.0,,0,0,,,,,,False
20.860706329345703,robot_triangle,0,11,0,1.166923563883561,-19.6203909479447,1.0,0.0,0.0,0.8927393492751056,-0.4505734726499787,1.0,1.0,1.0,0.0,0.0,1.0,1.0,0,0,False,0.3,0.0,0.0,-0.2,0.15,0.0,-0.2,-0.15,0.0,,0,0,,,,,,False
21.1126492023468,robot_triangle,0,11,0,1.0503298387223676,-19.750630107315278,1.0,0.0,0.0,0.8834847323029972,-0.46845995323773554,1.0,1.0,1.0,0.0,0.0,1.0,1.0,0,0,False,0.3,0.0,0.0,-0.2,0.15,0.0,-0.2,-0.15,0.0,,0,0,,,,,,False
21.340763568878174,robot_triangle,0,11,0,0.9419784774842478,-19.883127488741586,1.0,0.0,0.0,0.8727536809432929,-0.4881608468526874,1.0,1.0,1.0,0.0,0.0,1.0,1.0,0,0,False,0.3,0.0,0.0,-0.2,0.15,0.0,-0.2,-0.15,0.0,,0,0,,,,,,False
21.6257643699646,robot_triangle,0,11,0,0.8376770622365173,-20.026867778034273,1.0,0.0,0.0,0.8571237963613786,-0.5151104713661507,1.0,1.0,1.0,0.0,0.0,1.0,1.0,0,0,False,0.3,0.0,0.0,-0.2,0.15,0.0,-0.2,-0.15,0.0,,0,0,,,,,,False
21.8823721408844,robot_triangle,0,11,0,0.7426840456488752,-20.172151466304687,1.0,0.0,0.0,0.8411679142452503,-0.5407740193872993,1.0,1.0,1.0,0.0,0.0,1.0,1.0,0,0,False,0.3,0.0,0.0,-0.2,0.15,0.0,-0.2,-0.15,0.0,,0,0,,,,,,False
22.22527313232422,robot_triangle,0,11,0,0.6506820952995035,-20.337187089865044,1.0,0.0,0.0,0.8269493502285441,-0.5622764197052805,1.0,1.0,1.0,0.0,0.0,1.0,1.0,0,0,False,0.3,0.0,0.0,-0.2,0.15,0.0,-0.2,-0.15,0.0,,0,0,,,,,,False
22.39198923110962,robot_triangle,0,11,0,0.5703392248974994,-20.504423930530958,1.0,0.0,0.0,0.814237868948552,-0.5805313882729518,1.0,1.0,1.0,0.0,0.0,1.0,1.0,0,0,False,0.3,0.0,0.0,-0.2,0.15,0.0,-0.2,-0.15,0.0,,0,0,,,,,,False
22.671265602111816,robot_triangle,0,11,0,0.489537569563356,-20.69364738512538,1.0,0.0,0.0,0.8012362482320072,-0.5983481215138035,1.0,1.0,1.0,0.0,0.0,1.0,1.0,0,0,False,0.3,0.0,0.0,-0.2,0.15,0.0,-0.2,-0.15,0.0,,0,0,,,,,,False
22.898294687271118,robot_triangle,0,11,0,0.41755564209850543,-20.881372027580007,1.0,0.0,0.0,0.78936772526996,-0.6139206742748845,1.0,1.0,1.0,0.0,0.0,1.0,1.0,0,0,False,0.3,0.0,0.0,-0.2,0.15,0.0,-0.2,-0.15,0.0,,0,0,,,,,,False
23.123928546905518,robot_triangle,0,11,0,0.3390682607893631,-21.0829097726953,1.0,0.0,0.0,0.7766144413907633,-0.6299761975053603,1.0,1.0,1.0,0.0,0.0,1.0,1.0,0,0,False,0.3,0.0,0.0,-0.2,0.15,0.0,-0.2,-0.15,0.0,,0,0,,,,,,False
23.417157888412476,robot_triangle,0,11,0,0.2801364378256676,-21.283530202196506,1.0,0.0,0.0,0.7644496099430589,-0.6446834834691402,1.0,1.0,1.0,0.0,0.0,1.0,1.0,0,0,False,0.3,0.0,0.0,-0.2,0.15,0.0,-0.2,-0.15,0.0,,0,0,,,,,,False
23.637941598892212,robot_triangle,0,11,0,0.2357387059552712,-21.48290111173204,1.0,0.0,0.0,0.7517933352207572,-0.6593988027875469,1.0,1.0,1.0,0.0,0.0,1.0,1.0,0,0,False,0.3,0.0,0.0,-0.2,0.15,0.0,-0.2,-0.15,0.0,,0,0,,,,,,False
23.87621521949768,robot_triangle,0,11,0,0.18729507403617537,-21.696117854064905,1.0,0.0,0.0,0.739100924440541,-0.6735947026893381,1.0,1.0,1.0,0.0,0.0,1.0,1.0,0,0,False,0.3,0.0,0.0,-0.2,0.15,0.0,-0.2,-0.15,0.0,,0,0,,,,,,False
24.14483880996704,robot_triangle,0,11,0,0.1439862492303091,-21.9068902141608,1.0,0.0,0.0,0.7336519137540835,-0.6795254737277853,1.0,1.0,1.0,0.0,0.0,1.0,1.0,0,0,False,0.3,0.0,0.0,-0.2,0.15,0.0,-0.2,-0.15,0.0,,0,0,,,,,,False
24.37022066116333,robot_triangle,0,11,0,0.09984257169410746,-22.10504883805091,1.0,0.0,0.0,0.7360574737169678,-0.6769190464046607,1.0,1.0,1.0,0.0,0.0,1.0,1.0,0,0,False,0.3,0.0,0.0,-0.2,0.15,0.0,-0.2,-0.15,0.0,,0,0,,,,,,False
24.672253131866455,robot_triangle,0,11,0,0.04851477776189079,-22.307673563444084,1.0,0.0,0.0,0.7438748625057026,-0.6683189275578855,1.0,1.0,1.0,0.0,0.0,1.0,1.0,0,0,False,0.3,0.0,0.0,-0.2,0.15,0.0,-0.2,-0.15,0.0,,0,0,,,,,,False
24.895267248153687,robot_triangle,0,11,0,-0.022076571534633938,-22.52778257640937,1.0,0.0,0.0,0.7549606484941624,-0.6557700963182704,1.0,1.0,1.0,0.0,0.0,1.0,1.0,0,0,False,0.3,0.0,0.0,-0.2,0.15,0.0,-0.2,-0.15,0.0,,0,0,,,,,,False
25.114142179489136,robot_triangle,0,11,0,-0.09485170992504721,-22.74249946721473,1.0,0.0,0.0,0.7694269951786529,-0.6387347642725808,1.0,1.0,1.0,0.0,0.0,1.0,1.0,0,0,False,0.3,0.0,0.0,-0.2,0.15,0.0,-0.2,-0.15,0.0,,0,0,,,,,,False
25.424392700195312,robot_triangle,0,11,0,-0.18189074081948814,-22.933005981152665,1.0,0.0,0.0,0.7831240379117032,-0.6218655330896458,1.0,1.0,1.0,0.0,0.0,1.0,1.0,0,0,False,0.3,0.0,0.0,-0.2,0.15,0.0,-0.2,-0.15,0.0,,0,0,,,,,,False
25.670210123062134,robot_triangle,0,11,0,-0.2758013769364802,-23.134286594218207,1.0,0.0,0.0,0.7965451621656922,-0.604579030921873,1.0,1.0,1.0,0.0,0.0,1.0,1.0,0,0,False,0.3,0.0,0.0,-0.2,0.15,0.0,-0.2,-0.15,0.0,,0,0,,,,,,False
25.881038904190063,robot_triangle,0,11,0,-0.3703407820988608,-23.32465701795437,1.0,0.0,0.0,0.8072082145923782,-0.5902668026363884,1.0,1.0,1.0,0.0,0.0,1.0,1.0,0,0,False,0.3,0.0,0.0,-0.2,0.15,0.0,-0.2,-0.15,0.0,,0,0,,,,,,False
26.152637481689453,robot_triangle,0,11,0,-0.4617623750110843,-23.51131715816029,1.0,0.0,0.0,0.807054658483248,-0.5904767380858351,1.0,1.0,1.0,0.0,0.0,1.0,1.0,0,0,False,0.3,0.0,0.0,-0.2,0.15,0.0,-0.2,-0.15,0.0,,0,0,,,,,,False
26.421067714691162,robot_triangle,0,11,0,-0.5113778306178465,-23.63037327580977,1.0,0.0,0.0,0.7901203829644525,-0.6129516950169132,1.0,1.0,1.0,0.0,0.0,1.0,1.0,0,0,False,0.3,0.0,0.0,-0.2,0.15,0.0,-0.2,-0.15,0.0,,0,0,,,,,,False
26.61801505088806,robot_triangle,0,11,0,-0.510027184875,-23.68172656902649,1.0,0.0,0.0,0.7582086273779415,-0.6520120224119015,1.0,1.0,1.0,0.0,0.0,1.0,1.0,0,0,False,0.3,0.0,0.0,-0.2,0.15,0.0,-0.2,-0.15,0.0,,0,0,,,,,,False
26.910199642181396,robot_triangle,0,11,0,-0.4768001923865133,-23.703165321313644,1.0,0.0,0.0,0.7259737729955477,-0.6877223865213412,1.0,1.0,1.0,0.0,0.0,1.0,1.0,0,0,False,0.3,0.0,0.0,-0.2,0.15,0.0,-0.2,-0.15,0.0,,0,0,,,,,,False
27.103808164596558,robot_triangle,0,11,0,-0.45939058756196927,-23.714722963855582,1.0,0.0,0.0,-0.6994433178901156,0.7146880753579611,1.0,1.0,1.0,0.0,0.0,1.0,1.0,0,0,False,0.3,0.0,0.0,-0.2,0.15,0.0,-0.2,-0.15,0.0,,0,0,,,,,,False
27.359248876571655,robot_triangle,0,11,0,-0.45913650833004144,-23.737132987092036,1.0,0.0,0.0,-0.6846280259063052,0.7288926300516665,1.0,1.0,1.0,0.0,0.0,1.0,1.0,0,0,False,0.3,0.0,0.0,-0.2,0.15,0.0,-0.2,-0.15,0.0,,0,0,,,,,,False
27.587268352508545,robot_triangle,0,11,0,-0.4721218291244979,-23.76850151075447,1.0,0.0,0.0,-0.6894641372040509,0.7243198212871671,1.0,1.0,1.0,0.0,0.0,1.0,1.0,0,0,False,0.3,0.0,0.0,-0.2,0.15,0.0,-0.2,-0.15,0.0,,0,0,,,,,,False
27.875499963760376,robot_triangle,0,11,0,-0.49868739051944716,-23.811037199883884,1.0,0.0,0.0,-0.6936775722483863,0.7202856556669616,1.0,1.0,1.0,0.0,0.0,1.0,1.0,0,0,False,0.3,0.0,0.0,-0.2,0.15,0.0,-0.2,-0.15,0.0,,0,0,,,,,,False
28.127836227416992,robot_triangle,0,11,0,-0.5200878103132832,-23.84482455312945,1.0,0.0,0.0,-0.6963421957108126,0.7177099319869026,1.0,1.0,1.0,0.0,0.0,1.0,1.0,0,0,False,0.3,0.0,0.0,-0.2,0.15,0.0,-0.2,-0.15,0.0,,0,0,,,,,,False
28.410268545150757,robot_triangle,0,11,0,-0.5398032269290393,-23.878003125688004,1.0,0.0,0.0,-0.6984449965977358,0.7156637385864879,1.0,1.0,1.0,0.0,0.0,1.0,1.0,0,0,False,0.3,0.0,0.0,-0.2,0.15,0.0,-0.2,-0.15,0.0,,0,0,,,,,,False
28.661909103393555,robot_triangle,0,11,0,-0.5542175587507905,-23.921184711244905,1.0,0.0,0.0,-0.6992707847894961,0.7148568874536233,1.0,1.0,1.0,0.0,0.0,1.0,1.0,0,0,False,0.3,0.0,0.0,-0.2,0.15,0.0,-0.2,-0.15,0.0,,0,0,,,,,,False
28.941304683685303,robot_triangle,0,11,0,-0.5739653481804782,-23.955452876228723,1.0,0.0,0.0,-0.6989310249464333,0.7151890815492978,1.0,1.0,1.0,0.0,0.0,1.0,1.0,0,0,False,0.3,0.0,0.0,-0.2,0.15,0.0,-0.2,-0.15,0.0,,0,0,,,,,,False
29.130979537963867,robot_triangle,0,11,0,-0.5942907876804603,-23.98909090146296,1.0,0.0,0.0,-0.6982514282881769,0.715852598579848,1.0,1.0,1.0,0.0,0.0,1.0,1.0,0,0,False,0.3,0.0,0.0,-0.2,0.15,0.0,-0.2,-0.15,0.0,,0,0,,,,,,False
29.348204374313354,robot_triangle,0,11,0,-0.6085092308045565,-24.0235558027494,1.0,0.0,0.0,-0.6999976263476513,0.7141451694912274,1.0,1.0,1.0,0.0,0.0,1.0,1.0,0,0,False,0.3,0.0,0.0,-0.2,0.15,0.0,-0.2,-0.15,0.0,,0,0,,,,,,False
29.62483525276184,robot_triangle,0,11,0,-0.6429485348776502,-24.08264393256655,1.0,0.0,0.0,0.7153378558231928,-0.6987787575665685,1.0,1.0,1.0,0.0,0.0,1.0,1.0,0,0,False,0.3,0.0,0.0,-0.2,0.15,0.0,-0.2,-0.15,0.0,,0,0,,,,,,False
29.891569137573242,robot_triangle,0,11,0,-0.6860991647949657,-24.185752468601606,1.0,0.0,0.0,0.7387340175219621,-0.6739970707324041,1.0,1.0,1.0,0.0,0.0,1.0,1.0,0,0,False,0.3,0.0,0.0,-0.2,0.15,0.0,-0.2,-0.15,0.0,,0,0,,,,,,False
30.118568420410156,robot_triangle,0,11,0,-0.7568093552989527,-24.320607637518513,1.0,0.0,0.0,0.7680742307250643,-0.6403608171149299,1.0,1.0,1.0,0.0,0.0,1.0,1.0,0,0,False,0.3,0.0,0.0,-0.2,0.15,0.0,-0.2,-0.15,0.0,,0,0,,,,,,False
30.392467737197876,robot_triangle,0,11,0,-0.8421106791263389,-24.46808046993727,1.0,0.0,0.0,0.7950648983955777,-0.6065243666492136,1.0,1.0,1.0,0.0,0.0,1.0,1.0,0,0,False,0.3,0.0,0.0,-0.2,0.15,0.0,-0.2,-0.15,0.0,,0,0,,,,,,False
30.61261487007141,robot_triangle,0,11,0,-0.9524104502704963,-24.616215396704078,1.0,0.0,0.0,0.8228392601811676,-0.5682741872586761,1.0,1.0,1.0,0.0,0.0,1.0,1.0,0,0,False,0.3,0.0,0.0,-0.2,0.15,0.0,-0.2,-0.15,0.0,,0,0,,,,,,False
30.89904761314392,robot_triangle,0,11,0,-1.0756814626778226,-24.783018781343202,1.0,0.0,0.0,0.8462292234919429,-0.5328190136511867,1.0,1.0,1.0,0.0,0.0,1.0,1.0,0,0,False,0.3,0.0,0.0,-0.2,0.15,0.0,-0.2,-0.15,0.0,,0,0,,,,,,False
31.123072624206543,robot_triangle,0,11,0,-1.197517620359724,-24.929712771343844,1.0,0.0,0.0,0.8629000494341004,-0.5053746181661947,1.0,1.0,1.0,0.0,0.0,1.0,1.0,0,0,False,0.3,0.0,0.0,-0.2,0.15,0.0,-0.2,-0.15,0.0,,0,0,,,,,,False
31.53692126274109,robot_triangle,0,11,0,-1.3272685459837175,-25.07510483851645,1.0,0.0,0.0,0.8750706312598117,-0.4839952378965673,1.0,1.0,1.0,0.0,0.0,1.0,1.0,0,0,False,0.3,0.0,0.0,-0.2,0.15,0.0,-0.2,-0.15,0.0,,0,0,,,,,,False
31.608164310455322,robot_triangle,0,11,0,-1.458240484694927,-25.20910893142387,1.0,0.0,0.0,0.8848818138357072,-0.4658156025111533,1.0,1.0,1.0,0.0,0.0,1.0,1.0,0,0,False,0.3,0.0,0.0,-0.2,0.15,0.0,-0.2,-0.15,0.0,,0,0,,,,,,False
31.841591596603394,robot_triangle,0,11,0,-1.5821578115385917,-25.33199408218402,1.0,0.0,0.0,0.8918002359333249,-0.4524293748081196,1.0,1.0,1.0,0.0,0.0,1.0,1.0,0,0,False,0.3,0.0,0.0,-0.2,0.15,0.0,-0.2,-0.15,0.0,,0,0,,,,,,False
32.13039445877075,robot_triangle,0,11,0,-1.7035994648009325,-25.452808552136148,1.0,0.0,0.0,0.8973198698941435,-0.4413808458612101,1.0,1.0,1.0,0.0,0.0,1.0,1.0,0,0,False,0.3,0.0,0.0,-0.2,0.15,0.0,-0.2,-0.15,0.0,,0,0,,,,,,False
32.395360231399536,robot_triangle,0,11,0,-1.8190259081365074,-25.56286797370151,1.0,0.0,0.0,0.9012736765344393,-0.43325022791234036,1.0,1.0,1.0,0.0,0.0,1.0,1.0,0,0,False,0.3,0.0,0.0,-0.2,0.15,0.0,-0.2,-0.15,0.0,,0,0,,,,,,False
32.766714572906494,robot_triangle,0,11,0,-1.9339491938179116,-25.674775614290844,1.0,0.0,0.0,0.9045474617305247,-0.4263729464645534,1.0,1.0,1.0,0.0,0.0,1.0,1.0,0,0,False,0.3,0.0,0.0,-0.2,0.15,0.0,-0.2,-0.15,0.0,,0,0,,,,,,False
32.89250946044922,robot_triangle,0,11,0,-2.048395249642097,-25.774750019791906,1.0,0.0,0.0,0.9075097923506659,-0.4200309236087878,1.0,1.0,1.0,0.0,0.0,1.0,1.0,0,0,False,0.3,0.0,0.0,-0.2,0.15,0.0,-0.2,-0.15,0.0,,0,0,,,,,,False
33.159183979034424,robot_triangle,0,11,0,-2.1614969329672564,-25.880269381501908,1.0,0.0,0.0,0.9101695242157366,-0.41423596800483126,1.0,1.0,1.0,0.0,0.0,1.0,1.0,0,0,False,0.3,0.0,0.0,-0.2,0.15,0.0,-0.2,-0.15,0.0,,0,0,,,,,,False
33.38214063644409,robot_triangle,0,11,0,-2.268156343004019,-25.97182123263883,1.0,0.0,0.0,0.9116072590849602,-0.41106228869066336,1.0,1.0,1.0,0.0,0.0,1.0,1.0,0,0,False,0.3,0.0,0.0,-0.2,0.15,0.0,-0.2,-0.15,0.0,,0,0,,,,,,False
33.65600943565369,robot_triangle,0,11,0,-2.369061377941623,-26.068164222756888,1.0,0.0,0.0,0.9126182839424173,-0.40881275397667993,1.0,1.0,1.0,0.0,0.0,1.0,1.0,0,0,False,0.3,0.0,0.0,-0.2,0.15,0.0,-0.2,-0.15,0.0,,0,0,,,,,,False
33.87248516082764,robot_triangle,0,11,0,-2.4690672885668934,-26.147947440699895,1.0,0.0,0.0,0.9130358288698989,-0.40787936353762344,1.0,1.0,1.0,0.0,0.0,1.0,1.0,0,0,False,0.3,0.0,0.0,-0.2,0.15,0.0,-0.2,-0.15,0.0,,0,0,,,,,,False
34.15975046157837,robot_triangle,0,11,0,-2.5615508872486172,-26.233366760854054,1.0,0.0,0.0,0.9130963030040337,-0.40774396554745707,1.0,1.0,1.0,0.0,0.0,1.0,1.0,0,0,False,0.3,0.0,0.0,-0.2,0.15,0.0,-0.2,-0.15,0.0,,0,0,,,,,,False
34.36149215698242,robot_triangle,0,11,0,-2.654028747630089,-26.311653262842928,1.0,0.0,0.0,0.9130219422169583,-0.4079104473170223,1.0,1.0,1.0,0.0,0.0,1.0,1.0,0,0,False,0.3,0.0,0.0,-0.2,0.15,0.0,-0.2,-0.15,0.0,,0,0,,,,,,False
34.66442561149597,robot_triangle,0,11,0,-2.739411144864563,-26.397704716362863,1.0,0.0,0.0,0.9127568305063737,-0.4085033272373177,1.0,1.0,1.0,0.0,0.0,1.0,1.0,0,0,False,0.3,0.0,0.0,-0.2,0.15,0.0,-0.2,-0.15,0.0,,0,0,,,,,,False
34.90009093284607,robot_triangle,0,11,0,-2.8182885853124593,-26.465587634589546,1.0,0.0,0.0,0.9124230233464289,-0.40924836770274603,1.0,1.0,1.0,0.0,0.0,1.0,1.0,0,0,False,0.3,0.0,0.0,-0.2,0.15,0.0,-0.2,-0.15,0.0,,0,0,,,,,,False
35.11190390586853,robot_triangle,0,11,0,-2.9025475495064397,-26.541119727573086,1.0,0.0,0.0,0.9120446326530501,-0.41009095094718045,1.0,1.0,1.0,0.0,0.0,1.0,1.0,0,0,False,0.3,0.0,0.0,-0.2,0.15,0.0,-0.2,-0.15,0.0,,0,0,,,,,,False
35.470459938049316,robot_triangle,0,11,0,-2.98050145783569,-26.617451347175976,1.0,0.0,0.0,0.9115662589111863,-0.4111532021213797,1.0,1.0,1.0,0.0,0.0,1.0,1.0,0,0,False,0.3,0.0,0.0,-0.2,0.15,0.0,-0.2,-0.15,0.0,,0,0,,,,,,False
35.70003032684326,robot_triangle,0,11,0,-3.0584073566517866,-26.694456242196278,1.0,0.0,0.0,0.9110953900325487,-0.4121955728309536,1.0,1.0,1.0,0.0,0.0,1.0,1.0,0,0,False,0.3,0.0,0.0,-0.2,0.15,0.0,-0.2,-0.15,0.0,,0,0,,,,,,False
35.87512135505676,robot_triangle,0,11,0,-3.136540126276044,-26.761646589945006,1.0,0.0,0.0,0.9106933892409159,-0.4130829829379245,1.0,1.0,1.0,0.0,0.0,1.0,1.0,0,0,False,0.3,0.0,0.0,-0.2,0.15,0.0,-0.2,-0.15,0.0,,0,0,,,,,,False
36.14193153381348,robot_triangle,0,11,0,-3.2080745454663084,-26.828050719914426,1.0,0.0,0.0,0.9101332808993507,-0.4143155934784298,1.0,1.0,1.0,0.0,0.0,1.0,1.0,0,0,False,0.3,0.0,0.0,-0.2,0.15,0.0,-0.2,-0.15,0.0,,0,0,,,,,,False
36.344123125076294,robot_triangle,0,11,0,-3.2786775640809243,-26.894026436720292,1.0,0.0,0.0,0.9095861745549292,-0.4155153319175238,1.0,1.0,1.0,0.0,0.0,1.0,1.0,0,0,False,0.3,0.0,0.0,-0.2,0.15,0.0,-0.2,-0.15,0.0,,0,0,,,,,,False
36.63605332374573,robot_triangle,0,11,0,-3.3502801577325583,-26.971420283674462,1.0,0.0,0.0,0.9072607243624887,-0.4205686365258973,1.0,1.0,1.0,0.0,0.0,1.0,1.0,0,0,False,0.3,0.0,0.0,-0.2,0.15,0.0,-0.2,-0.15,0.0,,0,0,,,,,,False
36.83872413635254,robot_triangle,0,11,0,-3.4220427808096625,-27.040801950652856,1.0,0.0,0.0,0.9030555305136274,-0.4295238163463709,1.0,1.0,1.0,0.0,0.0,1.0,1.0,0,0,False,0.3,0.0,0.0,-0.2,0.15,0.0,-0.2,-0.15,0.0,,0,0,,,,,,False
37.11823010444641,robot_triangle,0,11,0,-3.493980114236406,-27.130257855195904,1.0,0.0,0.0,0.8946682612821317,-0.4467311297127248,1.0,1.0,1.0,0.0,0.0,1.0,1.0,0,0,False,0.3,0.0,0.0,-0.2,0.15,0.0,-0.2,-0.15,0.0,,0,0,,,,,,False
37.40827417373657,robot_triangle,0,11,0,-3.5651303765992473,-27.231251415707824,1.0,0.0,0.0,0.8833696597664523,-0.4686769081191244,1.0,1.0,1.0,0.0,0.0,1.0,1.0,0,0,False,0.3,0.0,0.0,-0.2,0.15,0.0,-0.2,-0.15,0.0,,0,0,,,,,,False
37.678855180740356,robot_triangle,0,11,0,-3.6290764984797588,-27.343041887378718,1.0,0.0,0.0,0.8681860388979752,-0.49623885565586606,1.0,1.0,1.0,0.0,0.0,1.0,1.0,0,0,False,0.3,0.0,0.0,-0.2,0.15,0.0,-0.2,-0.15,0.0,,0,0,,,,,,False
37.94082307815552,robot_triangle,0,11,0,-3.6925549751997346,-27.45582401957396,1.0,0.0,0.0,0.8534962331593687,-0.5210990116885356,1.0,1.0,1.0,0.0,0.0,1.0,1.0,0,0,False,0.3,0.0,0.0,-0.2,0.15,0.0,-0.2,-0.15,0.0,,0,0,,,,,,False
38.15060591697693,robot_triangle,0,11,0,-3.748990605920576,-27.577023116506787,1.0,0.0,0.0,0.8411269742893503,-0.5408376957302834,1.0,1.0,1.0,0.0,0.0,1.0,1.0,0,0,False,0.3,0.0,0.0,-0.2,0.15,0.0,-0.2,-0.15,0.0,,0,0,,,,,,False
38.46774363517761,robot_triangle,0,11,0,-3.8049362427139006,-27.699327194845118,1.0,0.0,0.0,0.8304207762787956,-0.5571367285725493,1.0,1.0,1.0,0.0,0.0,1.0,1.0,0,0,False,0.3,0.0,0.0,-0.2,0.15,0.0,-0.2,-0.15,0.0,,0,0,,,,,,False
38.66118788719177,robot_triangle,0,11,0,-3.860997675235584,-27.831809035608114,1.0,0.0,0.0,0.8205995375757167,-0.571503629848945,1.0,1.0,1.0,0.0,0.0,1.0,1.0,0,0,False,0.3,0.0,0.0,-0.2,0.15,0.0,-0.2,-0.15,0.0,,0,0,,,,,,False
38.895650148391724,robot_triangle,0,11,0,-3.9105721794847192,-27.954682436499258,1.0,0.0,0.0,0.812125501099046,-0.5834827936320174,1.0,1.0,1.0,0.0,0.0,1.0,1.0,0,0,False,0.3,0.0,0.0,-0.2,0.15,0.0,-0.2,-0.15,0.0,,0,0,,,,,,False
39.11485719680786,robot_triangle,0,11,0,-3.9596116447467256,-28.07647755325598,1.0,0.0,0.0,0.8052547671831772,-0.5929289670177762,1.0,1.0,1.0,0.0,0.0,1.0,1.0,0,0,False,0.3,0.0,0.0,-0.2,0.15,0.0,-0.2,-0.15,0.0,,0,0,,,,,,False
39.34511947631836,robot_triangle,0,11,0,-4.00882990532974,-28.19874515089073,1.0,0.0,0.0,0.7989930889754563,-0.601340206347005,1.0,1.0,1.0,0.0,0.0,1.0,1.0,0,0,False,0.3,0.0,0.0,-0.2,0.15,0.0,-0.2,-0.15,0.0,,0,0,,,,,,False
39.64756417274475,robot_triangle,0,11,0,-4.052060414717398,-28.331264383466582,1.0,0.0,0.0,0.792552557564018,-0.6098036105983089,1.0,1.0,1.0,0.0,0.0,1.0,1.0,0,0,False,0.3,0.0,0.0,-0.2,0.15,0.0,-0.2,-0.15,0.0,,0,0,,,,,,False
39.85663175582886,robot_triangle,0,11,0,-4.094874131662902,-28.465240484857606,1.0,0.0,0.0,0.7868225528357567,-0.6171792854179592,1.0,1.0,1.0,0.0,0.0,1.0,1.0,0,0,False,0.3,0.0,0.0,-0.2,0.15,0.0,-0.2,-0.15,0.0,,0,0,,,,,,False
40.11483883857727,robot_triangle,0,11,0,-4.1373834021593545,-28.588739698805522,1.0,0.0,0.0,0.7807428715512567,-0.6248524373977411,1.0,1.0,1.0,0.0,0.0,1.0,1.0,0,0,False,0.3,0.0,0.0,-0.2,0.15,0.0,-0.2,-0.15,0.0,,0,0,,,,,,False
40.344865798950195,robot_triangle,0,11,0,-4.1795440366550185,-28.720417294358025,1.0,0.0,0.0,0.7749706612409358,-0.6319972106075996,1.0,1.0,1.0,0.0,0.0,1.0,1.0,0,0,False,0.3,0.0,0.0,-0.2,0.15,0.0,-0.2,-0.15,0.0,,0,0,,,,,,False
40.66386842727661,robot_triangle,0,11,0,-4.209696701256012,-28.855009042938924,1.0,0.0,0.0,0.7686288799521938,-0.6396949623871022,1.0,1.0,1.0,0.0,0.0,1.0,1.0,0,0,False,0.3,0.0,0.0,-0.2,0.15,0.0,-0.2,-0.15,0.0,,0,0,,,,,,False
40.89666414260864,robot_triangle,0,11,0,-4.24441164241811,-28.988223230060658,1.0,0.0,0.0,0.7625783068896765,-0.6468959157865154,1.0,1.0,1.0,0.0,0.0,1.0,1.0,0,0,False,0.3,0.0,0.0,-0.2,0.15,0.0,-0.2,-0.15,0.0,,0,0,,,,,,False
41.15601992607117,robot_triangle,0,11,0,-4.280184818694602,-29.122711295798997,1.0,0.0,0.0,0.7558169449660297,-0.6547829760326833,1.0,1.0,1.0,0.0,0.0,1.0,1.0,0,0,False,0.3,0.0,0.0,-0.2,0.15,0.0,-0.2,-0.15,0.0,,0,0,,,,,,False
41.38087821006775,robot_triangle,0,11,0,-4.302480108741259,-29.25613282052438,1.0,0.0,0.0,0.7496482354010635,-0.6618364776589998,1.0,1.0,1.0,0.0,0.0,1.0,1.0,0,0,False,0.3,0.0,0.0,-0.2,0.15,0.0,-0.2,-0.15,0.0,,0,0,,,,,,False
41.670714139938354,robot_triangle,0,11,0,-4.32998755997181,-29.389236574696444,1.0,0.0,0.0,0.7431855075671296,-0.669085421558554,1.0,1.0,1.0,0.0,0.0,1.0,1.0,0,0,False,0.3,0.0,0.0,-0.2,0.15,0.0,-0.2,-0.15,0.0,,0,0,,,,,,False
41.8683876991272,robot_triangle,0,11,0,-4.352085220173574,-29.523236626798454,1.0,0.0,0.0,0.7385196974371552,-0.6742319011270029,1.0,1.0,1.0,0.0,0.0,1.0,1.0,0,0,False,0.3,0.0,0.0,-0.2,0.15,0.0,-0.2,-0.15,0.0,,0,0,,,,,,False
42.111196994781494,robot_triangle,0,11,0,-4.380694214877666,-29.657812927055225,1.0,0.0,0.0,0.7403765641936746,-0.6721923409209373,1.0,1.0,1.0,0.0,0.0,1.0,1.0,0,0,False,0.3,0.0,0.0,-0.2,0.15,0.0,-0.2,-0.15,0.0,,0,0,,,,,,False
42.36403298377991,robot_triangle,0,11,0,-4.410143168700556,-29.802753574000818,1.0,0.0,0.0,0.7462645558962349,-0.6656494667713596,1.0,1.0,1.0,0.0,0.0,1.0,1.0,0,0,False,0.3,0.0,0.0,-0.2,0.15,0.0,-0.2,-0.15,0.0,,0,0,,,,,,False
42.60836410522461,robot_triangle,0,11,0,-4.459440705854944,-29.948312227661418,1.0,0.0,0.0,0.7563124993112259,-0.6542105191645935,1.0,1.0,1.0,0.0,0.0,1.0,1.0,0,0,False,0.3,0.0,0.0,-0.2,0.15,0.0,-0.2,-0.15,0.0,,0,0,,,,,,False
42.86741399765015,robot_triangle,0,11,0,-4.510218705732032,-30.104194324711198,1.0,0.0,0.0,0.7673327109754324,-0.6412491798568584,1.0,1.0,1.0,0.0,0.0,1.0,1.0,0,0,False,0.3,0.0,0.0,-0.2,0.15,0.0,-0.2,-0.15,0.0,,0,0,,,,,,False
43.1336669921875,robot_triangle,0,11,0,-4.56822012199237,-30.26115665508623,1.0,0.0,0.0,0.7798913707263545,-0.6259148902738838,1.0,1.0,1.0,0.0,0.0,1.0,1.0,0,0,False,0.3,0.0,0.0,-0.2,0.15,0.0,-0.2,-0.15,0.0,,0,0,,,,,,False
43.35346961021423,robot_triangle,0,11,0,-4.640127363917672,-30.428179830374486,1.0,0.0,0.0,0.7915732505650825,-0.611074290892547,1.0,1.0,1.0,0.0,0.0,1.0,1.0,0,0,False,0.3,0.0,0.0,-0.2,0.15,0.0,-0.2,-0.15,0.0,,0,0,,,,,,False
43.641034841537476,robot_triangle,0,11,0,-4.712855540479022,-30.5859607861977,1.0,0.0,0.0,0.8039077943200121,-0.5947539476384609,1.0,1.0,1.0,0.0,0.0,1.0,1.0,0,0,False,0.3,0.0,0.0,-0.2,0.15,0.0,-0.2,-0.15,0.0,,0,0,,,,,,False
43.870166063308716,robot_triangle,0,11,0,-4.798819020394478,-30.741965467930555,1.0,0.0,0.0,0.8144960634647287,-0.5801690810448802,1.0,1.0,1.0,0.0,0.0,1.0,1.0,0,0,False,0.3,0.0,0.0,-0.2,0.15,0.0,-0.2,-0.15,0.0,,0,0,,,,,,False
44.168795585632324,robot_triangle,0,11,0,-4.878207685399861,-30.906926678179843,1.0,0.0,0.0,0.8219765746655385,-0.5695212996026648,1.0,1.0,1.0,0.0,0.0,1.0,1.0,0,0,False,0.3,0.0,0.0,-0.2,0.15,0.0,-0.2,-0.15,0.0,,0,0,,,,,,False
44.3961226940155,robot_triangle,0,11,0,-4.956620864999916,-31.042213688653906,1.0,0.0,0.0,0.8268198354091305,-0.5624668521557679,1.0,1.0,1.0,0.0,0.0,1.0,1.0,0,0,False,0.3,0.0,0.0,-0.2,0.15,0.0,-0.2,-0.15,0.0,,0,0,,,,,,False
44.63455128669739,robot_triangle,0,11,0,-5.028828249767176,-31.17471346995606,1.0,0.0,0.0,0.8307167620969553,-0.5566953037085463,1.0,1.0,1.0,0.0,0.0,1.0,1.0,0,0,False,0.3,0.0,0.0,-0.2,0.15,0.0,-0.2,-0.15,0.0,,0,0,,,,,,False
44.84496521949768,robot_triangle,0,11,0,-5.100213338614321,-31.29824850786836,1.0,0.0,0.0,0.8335795236841852,-0.5523994729310002,1.0,1.0,1.0,0.0,0.0,1.0,1.0,0,0,False,0.3,0.0,0.0,-0.2,0.15,0.0,-0.2,-0.15,0.0,,0,0,,,,,,False
45.17609357833862,robot_triangle,0,11,0,-5.171404621285675,-31.418573749664144,1.0,0.0,0.0,0.8363422212289634,-0.5482077060656878,1.0,1.0,1.0,0.0,0.0,1.0,1.0,0,0,False,0.3,0.0,0.0,-0.2,0.15,0.0,-0.2,-0.15,0.0,,0,0,,,,,,False
45.366209506988525,robot_triangle,0,11,0,-5.236237489308615,-31.530839392518374,1.0,0.0,0.0,0.8382773612675744,-0.5452440422290487,1.0,1.0,1.0,0.0,0.0,1.0,1.0,0,0,False,0.3,0.0,0.0,-0.2,0.15,0.0,-0.2,-0.15,0.0,,0,0,,,,,,False
45.677509784698486,robot_triangle,0,11,0,-5.300217039472806,-31.64047063485205,1.0,0.0,0.0,0.8402213525091524,-0.5422435603930125,1.0,1.0,1.0,0.0,0.0,1.0,1.0,0,0,False,0.3,0.0,0.0,-0.2,0.15,0.0,-0.2,-0.15,0.0,,0,0,,,,,,False
45.868401527404785,robot_triangle,0,11,0,-5.364176266327768,-31.750472410066774,1.0,0.0,0.0,0.8419170724773088,-0.5396069338613412,1.0,1.0,1.0,0.0,0.0,1.0,1.0,0,0,False,0.3,0.0,0.0,-0.2,0.15,0.0,-0.2,-0.15,0.0,,0,0,,,,,,False
46.213008880615234,robot_triangle,0,11,0,-5.421544022848009,-31.85072165920612,1.0,0.0,0.0,0.8433292608258669,-0.5373972067613461,1.0,1.0,1.0,0.0,0.0,1.0,1.0,0,0,False,0.3,0.0,0.0,-0.2,0.15,0.0,-0.2,-0.15,0.0,,0,0,,,,,,False
46.46954679489136,robot_triangle,0,11,0,-5.484922624275573,-31.93948804516543,1.0,0.0,0.0,0.844734337284455,-0.535185855019163,1.0,1.0,1.0,0.0,0.0,1.0,1.0,0,0,False,0.3,0.0,0.0,-0.2,0.15,0.0,-0.2,-0.15,0.0,,0,0,,,,,,False
46.64656639099121,robot_triangle,0,11,0,-5.535806184849047,-32.03752400292257,1.0,0.0,0.0,0.8459358815799163,-0.5332846184314806,1.0,1.0,1.0,0.0,0.0,1.0,1.0,0,0,False,0.3,0.0,0.0,-0.2,0.15,0.0,-0.2,-0.15,0.0,,0,0,,,,,,False
46.90252232551575,robot_triangle,0,11,0,-5.598082796538574,-32.12653869469978,1.0,0.0,0.0,0.847124631038751,-0.531394259930854,1.0,1.0,1.0,0.0,0.0,1.0,1.0,0,0,False,0.3,0.0,0.0,-0.2,0.15,0.0,-0.2,-0.15,0.0,,0,0,,,,,,False
47.12182092666626,robot_triangle,0,11,0,-5.649131658797556,-32.21454876120182,1.0,0.0,0.0,0.8483808223270279,-0.5293864187034986,1.0,1.0,1.0,0.0,0.0,1.0,1.0,0,0,False,0.3,0.0,0.0,-0.2,0.15,0.0,-0.2,-0.15,0.0,,0,0,,,,,,False
47.33375310897827,robot_triangle,0,11,0,-5.69884363657591,-32.30228931736465,1.0,0.0,0.0,0.8493677810848692,-0.5278014517363189,1.0,1.0,1.0,0.0,0.0,1.0,1.0,0,0,False,0.3,0.0,0.0,-0.2,0.15,0.0,-0.2,-0.15,0.0,,0,0,,,,,,False
47.64311504364014,robot_triangle,0,11,0,-5.754956842236206,-32.38054010303972,1.0,0.0,0.0,0.8504593115522718,-0.5260408343408675,1.0,1.0,1.0,0.0,0.0,1.0,1.0,0,0,False,0.3,0.0,0.0,-0.2,0.15,0.0,-0.2,-0.15,0.0,,0,0,,,,,,False
47.87123084068298,robot_triangle,0,11,0,-5.80504117354798,-32.457058092984674,1.0,0.0,0.0,0.8515514018032393,-0.5242711226902909,1.0,1.0,1.0,0.0,0.0,1.0,1.0,0,0,False,0.3,0.0,0.0,-0.2,0.15,0.0,-0.2,-0.15,0.0,,0,0,,,,,,False
48.113348960876465,robot_triangle,0,11,0,-5.854769765455121,-32.53435528966898,1.0,0.0,0.0,0.8525771814480851,-0.5226013295754603,1.0,1.0,1.0,0.0,0.0,1.0,1.0,0,0,False,0.3,0.0,0.0,-0.2,0.15,0.0,-0.2,-0.15,0.0,,0,0,,,,,,False
48.39628267288208,robot_triangle,0,11,0,-5.904349968078517,-32.601458449749856,1.0,0.0,0.0,0.8534554313519004,-0.5211658341602426,1.0,1.0,1.0,0.0,0.0,1.0,1.0,0,0,False,0.3,0.0,0.0,-0.2,0.15,0.0,-0.2,-0.15,0.0,,0,0,,,,,,False
48.632946729660034,robot_triangle,0,11,0,-5.947667769848145,-32.677309057811506,1.0,0.0,0.0,0.8544464152331276,-0.5195395302527591,1.0,1.0,1.0,0.0,0.0,1.0,1.0,0,0,False,0.3,0.0,0.0,-0.2,0.15,0.0,-0.2,-0.15,0.0,,0,0,,,,,,False
48.84366011619568,robot_triangle,0,11,0,-5.996626270772707,-32.744427564720354,1.0,0.0,0.0,0.8554303492912015,-0.5179178675345474,1.0,1.0,1.0,0.0,0.0,1.0,1.0,0,0,False,0.3,0.0,0.0,-0.2,0.15,0.0,-0.2,-0.15,0.0,,0,0,,,,,,False
49.192498445510864,robot_triangle,0,11,0,-6.03982942406058,-32.82061943346711,1.0,0.0,0.0,0.8563755465324494,-0.5163534867716577,1.0,1.0,1.0,0.0,0.0,1.0,1.0,0,0,False,0.3,0.0,0.0,-0.2,0.15,0.0,-0.2,-0.15,0.0,,0,0,,,,,,False
49.52037811279297,robot_triangle,0,11,0,-6.0824179406996555,-32.8873518202108,1.0,0.0,0.0,0.8571101158480351,-0.5151332345238151,1.0,1.0,1.0,0.0,0.0,1.0,1.0,0,0,False,0.3,0.0,0.0,-0.2,0.15,0.0,-0.2,-0.15,0.0,,0,0,,,,,,False
49.72139072418213,robot_triangle,0,11,0,-6.1252913451822755,-32.94371688370544,1.0,0.0,0.0,0.8580393680432771,-0.5135839200051865,1.0,1.0,1.0,0.0,0.0,1.0,1.0,0,0,False,0.3,0.0,0.0,-0.2,0.15,0.0,-0.2,-0.15,0.0,,0,0,,,,,,False
49.90317416191101,robot_triangle,0,11,0,-6.174072259244325,-33.01924370679248,1.0,0.0,0.0,0.8589089349207268,-0.5121283447665659,1.0,1.0,1.0,0.0,0.0,1.0,1.0,0,0,False,0.3,0.0,0.0,-0.2,0.15,0.0,-0.2,-0.15,0.0,,0,0,,,,,,False
50.122339725494385,robot_triangle,0,11,0,-6.2177360005645905,-33.0764342076927,1.0,0.0,0.0,0.8596519463491722,-0.510880153400071,1.0,1.0,1.0,0.0,0.0,1.0,1.0,0,0,False,0.3,0.0,0.0,-0.2,0.15,0.0,-0.2,-0.15,0.0,,0,0,,,,,,False
50.36759328842163,robot_triangle,0,11,0,-6.260725016956424,-33.142320776444045,1.0,0.0,0.0,0.8603530212777655,-0.5096986156330237,1.0,1.0,1.0,0.0,0.0,1.0,1.0,0,0,False,0.3,0.0,0.0,-0.2,0.15,0.0,-0.2,-0.15,0.0,,0,0,,,,,,False
50.7201566696167,robot_triangle,0,11,0,-6.296477477267246,-33.198162987957765,1.0,0.0,0.0,0.8610372654917879,-0.5085418639939334,1.0,1.0,1.0,0.0,0.0,1.0,1.0,0,0,False,0.3,0.0,0.0,-0.2,0.15,0.0,-0.2,-0.15,0.0,,0,0,,,,,,False
50.90983295440674,robot_triangle,0,11,0,-6.338956382947641,-33.25401345856223,1.0,0.0,0.0,0.8618047524258797,-0.5072401489395021,1.0,1.0,1.0,0.0,0.0,1.0,1.0,0,0,False,0.3,0.0,0.0,-0.2,0.15,0.0,-0.2,-0.15,0.0,,0,0,,,,,,False
51.15698742866516,robot_triangle,0,11,0,-6.381723459784008,-33.30954836629948,1.0,0.0,0.0,0.8624221870400545,-0.5061896594173466,1.0,1.0,1.0,0.0,0.0,1.0,1.0,0,0,False,0.3,0.0,0.0,-0.2,0.15,0.0,-0.2,-0.15,0.0,,0,0,,,,,,False
51.40706515312195,robot_triangle,0,11,0,-6.4179759211239364,-33.374879293972086,1.0,0.0,0.0,0.8629983820614308,-0.5052066830113718,1.0,1.0,1.0,0.0,0.0,1.0,1.0,0,0,False,0.3,0.0,0.0,-0.2,0.15,0.0,-0.2,-0.15,0.0,,0,0,,,,,,False
51.61163020133972,robot_triangle,0,11,0,-6.453613912316764,-33.43116890869405,1.0,0.0,0.0,0.8636733022384283,-0.5040520082298735,1.0,1.0,1.0,0.0,0.0,1.0,1.0,0,0,False,0.3,0.0,0.0,-0.2,0.15,0.0,-0.2,-0.15,0.0,,0,0,,,,,,False
51.84272813796997,robot_triangle,0,11,0,-6.495492517329077,-33.476875156804596,1.0,0.0,0.0,0.8642525672524538,-0.5030581477300043,1.0,1.0,1.0,0.0,0.0,1.0,1.0,0,0,False,0.3,0.0,0.0,-0.2,0.15,0.0,-0.2,-0.15,0.0,,0,0,,,,,,False
52.15610671043396,robot_triangle,0,11,0,-6.531874262767539,-33.53112513755561,1.0,0.0,0.0,0.8648321196430516,-0.5020611564677221,1.0,1.0,1.0,0.0,0.0,1.0,1.0,0,0,False,0.3,0.0,0.0,-0.2,0.15,0.0,-0.2,-0.15,0.0,,0,0,,,,,,False
52.41316795349121,robot_triangle,0,11,0,-6.567572057490816,-33.58651127161084,1.0,0.0,0.0,0.8653481180159912,-0.5011712627896597,1.0,1.0,1.0,0.0,0.0,1.0,1.0,0,0,False,0.3,0.0,0.0,-0.2,0.15,0.0,-0.2,-0.15,0.0,,0,0,,,,,,False
52.66603136062622,robot_triangle,0,11,0,-6.603246907279027,-33.63180814674352,1.0,0.0,0.0,0.8658717673616138,-0.5002660117238382,1.0,1.0,1.0,0.0,0.0,1.0,1.0,0,0,False,0.3,0.0,0.0,-0.2,0.15,0.0,-0.2,-0.15,0.0,,0,0,,,,,,False
52.88246393203735,robot_triangle,0,11,0,-6.638895704152399,-33.68643084204703,1.0,0.0,0.0,0.8663102412636909,-0.49950632216383967,1.0,1.0,1.0,0.0,0.0,1.0,1.0,0,0,False,0.3,0.0,0.0,-0.2,0.15,0.0,-0.2,-0.15,0.0,,0,0,,,,,,False
53.151676654815674,robot_triangle,0,11,0,-6.674425099973563,-33.73172553419232,1.0,0.0,0.0,0.8667247139788734,-0.4987867983199235,1.0,1.0,1.0,0.0,0.0,1.0,1.0,0,0,False,0.3,0.0,0.0,-0.2,0.15,0.0,-0.2,-0.15,0.0,,0,0,,,,,,False
53.43112587928772,robot_triangle,0,11,0,-6.709877228518271,-33.776085538429726,1.0,0.0,0.0,0.867011029316481,-0.498288947342379,1.0,1.0,1.0,0.0,0.0,1.0,1.0,0,0,False,0.3,0.0,0.0,-0.2,0.15,0.0,-0.2,-0.15,0.0,,0,0,,,,,,False
53.65811252593994,robot_triangle,0,11,0,-6.745838086628599,-33.83047468663702,1.0,0.0,0.0,0.8674629270388641,-0.49750182935660286,1.0,1.0,1.0,0.0,0.0,1.0,1.0,0,0,False,0.3,0.0,0.0,-0.2,0.15,0.0,-0.2,-0.15,0.0,,0,0,,,,,,False
53.88348054885864,robot_triangle,0,11,0,-6.781408473789537,-33.87580262121457,1.0,0.0,0.0,0.8677716507085941,-0.4969631397060367,1.0,1.0,1.0,0.0,0.0,1.0,1.0,0,0,False,0.3,0.0,0.0,-0.2,0.15,0.0,-0.2,-0.15,0.0,,0,0,,,,,,False
54.086318492889404,robot_triangle,0,11,0,-6.810595340959446,-33.9201042193634,1.0,0.0,0.0,0.868096150002251,-0.49639608615627623,1.0,1.0,1.0,0.0,0.0,1.0,1.0,0,0,False,0.3,0.0,0.0,-0.2,0.15,0.0,-0.2,-0.15,0.0,,0,0,,,,,,False
54.390170097351074,robot_triangle,0,11,0,-6.845628107578605,-33.96447986018471,1.0,0.0,0.0,0.8683817901480045,-0.49589622557481416,1.0,1.0,1.0,0.0,0.0,1.0,1.0,0,0,False,0.3,0.0,0.0,-0.2,0.15,0.0,-0.2,-0.15,0.0,,0,0,,,,,,False
54.63328456878662,robot_triangle,0,11,0,-6.874804892742267,-34.00868559462251,1.0,0.0,0.0,0.8686661384156887,-0.49539796120894103,1.0,1.0,1.0,0.0,0.0,1.0,1.0,0,0,False,0.3,0.0,0.0,-0.2,0.15,0.0,-0.2,-0.15,0.0,,0,0,,,,,,False
