time,ns,id,type,action,pose.position.x,pose.position.y,pose.position.z,pose.orientation.x,pose.orientation.y,pose.orientation.z,pose.orientation.w,scale.x,scale.y,scale.z,color.r,color.g,color.b,color.a,lifetime.sec,lifetime.nanosec,frame_locked,points[0].x,points[0].y,points[0].z,points[1].x,points[1].y,points[1].z,points[2].x,points[2].y,points[2].z,texture_resource,texture.header.stamp.sec,texture.header.stamp.nanosec,texture.header.frame_id,texture.format,text,mesh_resource,mesh_file.filename,mesh_use_embedded_materials
3.051323175430298,robot_triangle,0,11,0,-3.1496162681650506,-11.37638892629078,1.0,0.0,0.0,-0.5978708363205282,0.8015924544788282,1.0,1.0,1.0,0.0,0.0,1.0,1.0,0,0,False,0.3,0.0,0.0,-0.2,0.15,0.0,-0.2,-0.15,0.0,,0,0,,,,,,False
3.1759471893310547,robot_triangle,0,11,0,-3.1560658629413925,-11.388109560940686,1.0,0.0,0.0,-0.6029932529831914,0.7977462860187748,1.0,1.0,1.0,0.0,0.0,1.0,1.0,0,0,False,0.3,0.0,0.0,-0.2,0.15,0.0,-0.2,-0.15,0.0,,0,0,,,,,,False
3.3692331314086914,robot_triangle,0,11,0,-3.1558990257295556,-11.39966905052106,1.0,0.0,0.0,-0.6023344603274706,0.798243821086023,1.0,1.0,1.0,0.0,0.0,1.0,1.0,0,0,False,0.3,0.0,0.0,-0.2,0.15,0.0,-0.2,-0.15,0.0,,0,0,,,,,,False
3.6032543182373047,robot_triangle,0,11,0,-3.148831034056288,-11.412266289231585,1.0,0.0,0.0,-0.5987502833256725,0.8009357641018578,1.0,1.0,1.0,0.0,0.0,1.0,1.0,0,0,False,0.3,0.0,0.0,-0.2,0.15,0.0,-0.2,-0.15,0.0,,0,0,,,,,,False
3.8410098552703857,robot_triangle,0,11,0,-3.141648103791376,-11.43371908870529,1.0,0.0,0.0,-0.5955951335234003,0.8032847794669353,1.0,1.0,1.0,0.0,0.0,1.0,1.0,0,0,False,0.3,0.0,0.0,-0.2,0.15,0.0,-0.2,-0.15,0.0,,0,0,,,,,,False
4.220824956893921,robot_triangle,0,11,0,-3.134819521187732,-11.445675129749603,1.0,0.0,0.0,-0.592222170848605,0.8057747205983604,1.0,1.0,1.0,0.0,0.0,1.0,1.0,0,0,False,0.3,0.0,0.0,-0.2,0.15,0.0,-0.2,-0.15,0.0,,0,0,,,,,,False
4.3886799812316895,robot_triangle,0,11,0,-3.1276647009209957,-11.466903972858097,1.0,0.0,0.0,-0.5883996128409333,0.8085702787072004,1.0,1.0,1.0,0.0,0.0,1.0,1.0,0,0,False,0.3,0.0,0.0,-0.2,0.15,0.0,-0.2,-0.15,0.0,,0,0,,,,,,False
4.656778335571289,robot_triangle,0,11,0,-3.120322136323922,-11.478657317477795,1.0,0.0,0.0,-0.5855535607082915,0.8106337197167666,1.0,1.0,1.0,0.0,0.0,1.0,1.0,0,0,False,0.3,0.0,0.0,-0.2,0.15,0.0,-0.2,-0.15,0.0,,0,0,,,,,,False
4.852816343307495,robot_triangle,0,11,0,-3.113372148193203,-11.499693378632582,1.0,0.0,0.0,-0.5831484892252105,0.8123655824284746,1.0,1.0,1.0,0.0,0.0,1.0,1.0,0,0,False,0.3,0.0,0.0,-0.2,0.15,0.0,-0.2,-0.15,0.0,,0,0,,,,,,False
5.103190183639526,robot_triangle,0,11,0,-3.1065709007354414,-11.521854582811608,1.0,0.0,0.0,-0.58017160389106,0.8144942664245556,1.0,1.0,1.0,0.0,0.0,1.0,1.0,0,0,False,0.3,0.0,0.0,-0.2,0.15,0.0,-0.2,-0.15,0.0,,0,0,,,,,,False
5.360603332519531,robot_triangle,0,11,0,-3.099437503375711,-11.533588231975854,1.0,0.0,0.0,-0.5772966762307021,0.8165344742342383,1.0,1.0,1.0,0.0,0.0,1.0,1.0,0,0,False,0.3,0.0,0.0,-0.2,0.15,0.0,-0.2,-0.15,0.0,,0,0,,,,,,False
5.596905708312988,robot_triangle,0,11,0,-3.0920871540196755,-11.554771115309899,1.0,0.0,0.0,-0.5750915967275282,0.8180890265572458,1.0,1.0,1.0,0.0,0.0,1.0,1.0,0,0,False,0.3,0.0,0.0,-0.2,0.15,0.0,-0.2,-0.15,0.0,,0,0,,,,,,False
5.875114679336548,robot_triangle,0,11,0,-3.085264882416622,-11.567147399421641,1.0,0.0,0.0,-0.573042422077664,0.819525705819753,1.0,1.0,1.0,0.0,0.0,1.0,1.0,0,0,False,0.3,0.0,0.0,-0.2,0.15,0.0,-0.2,-0.15,0.0,,0,0,,,,,,False
6.1154398918151855,robot_triangle,0,11,0,-3.0785401809427277,-11.58783623326111,1.0,0.0,0.0,-0.5706406359482062,0.8211998932078759,1.0,1.0,1.0,0.0,0.0,1.0,1.0,0,0,False,0.3,0.0,0.0,-0.2,0.15,0.0,-0.2,-0.15,0.0,,0,0,,,,,,False
6.289885520935059,robot_triangle,0,11,0,-3.0777349478605855,-11.59968063125832,1.0,0.0,0.0,-0.5683817494043064,0.822764964582292,1.0,1.0,1.0,0.0,0.0,1.0,1.0,0,0,False,0.3,0.0,0.0,-0.2,0.15,0.0,-0.2,-0.15,0.0,,0,0,,,,,,False
6.59077787399292,robot_triangle,0,11,0,-3.0710318989683607,-11.610969418116278,1.0,0.0,0.0,-0.5665440745164761,0.8240314384962927,1.0,1.0,1.0,0.0,0.0,1.0,1.0,0,0,False,0.3,0.0,0.0,-0.2,0.15,0.0,-0.2,-0.15,0.0,,0,0,,,,,,False
6.847806215286255,robot_triangle,0,11,0,-3.0642186673045777,-11.632187405381698,1.0,0.0,0.0,-0.5645590419479009,0.8253926872433922,1.0,1.0,1.0,0.0,0.0,1.0,1.0,0,0,False,0.3,0.0,0.0,-0.2,0.15,0.0,-0.2,-0.15,0.0,,0,0,,,,,,False
7.134621620178223,robot_triangle,0,11,0,-3.0573478539067636,-11.644355272473746,1.0,0.0,0.0,-0.5626992606770925,0.8266616853546882,1.0,1.0,1.0,0.0,0.0,1.0,1.0,0,0,False,0.3,0.0,0.0,-0.2,0.15,0.0,-0.2,-0.15,0.0,,0,0,,,,,,False
7.31350302696228,robot_triangle,0,11,0,-3.0500254181345543,-11.655921559480987,1.0,0.0,0.0,-0.5623935790767155,0.8268696766802385,1.0,1.0,1.0,0.0,0.0,1.0,1.0,0,0,False,0.3,0.0,0.0,-0.2,0.15,0.0,-0.2,-0.15,0.0,,0,0,,,,,,False
7.583746671676636,robot_triangle,0,11,0,-3.0420996307958537,-11.689179913634137,1.0,0.0,0.0,-0.5641679305139632,0.8256600669643603,1.0,1.0,1.0,0.0,0.0,1.0,1.0,0,0,False,0.3,0.0,0.0,-0.2,0.15,0.0,-0.2,-0.15,0.0,,0,0,,,,,,False
7.864633560180664,robot_triangle,0,11,0,-3.034214789783158,-11.735901018277271,1.0,0.0,0.0,-0.5703935542590435,0.8213715318050264,1.0,1.0,1.0,0.0,0.0,1.0,1.0,0,0,False,0.3,0.0,0.0,-0.2,0.15,0.0,-0.2,-0.15,0.0,,0,0,,,,,,False
8.069024085998535,robot_triangle,0,11,0,-3.0268066533006186,-11.802272138224138,1.0,0.0,0.0,-0.5773218102594034,0.8165167036863393,1.0,1.0,1.0,0.0,0.0,1.0,1.0,0,0,False,0.3,0.0,0.0,-0.2,0.15,0.0,-0.2,-0.15,0.0,,0,0,,,,,,False
8.365476131439209,robot_triangle,0,11,0,-3.0194197201123623,-11.871075979240196,1.0,0.0,0.0,-0.5878188134036769,0.8089926097367597,1.0,1.0,1.0,0.0,0.0,1.0,1.0,0,0,False,0.3,0.0,0.0,-0.2,0.15,0.0,-0.2,-0.15,0.0,,0,0,,,,,,False
8.585534572601318,robot_triangle,0,11,0,-3.018488341676451,-11.961623875092688,1.0,0.0,0.0,-0.600816919637084,0.7993866580559159,1.0,1.0,1.0,0.0,0.0,1.0,1.0,0,0,False,0.3,0.0,0.0,-0.2,0.15,0.0,-0.2,-0.15,0.0,,0,0,,,,,,False
8.922775745391846,robot_triangle,0,11,0,-3.004894965737404,-12.063030538989869,1.0,0.0,0.0,-0.6051206323233234,0.796133795499614,1.0,1.0,1.0,0.0,0.0,1.0,1.0,0,0,False,0.3,0.0,0.0,-0.2,0.15,0.0,-0.2,-0.15,0.0,,0,0,,,,,,False
9.078400373458862,robot_triangle,0,11,0,-2.995981418379689,-12.1651144870607,1.0,0.0,0.0,-0.6018749261058226,0.7985903664114103,1.0,1.0,1.0,0.0,0.0,1.0,1.0,0,0,False,0.3,0.0,0.0,-0.2,0.15,0.0,-0.2,-0.15,0.0,,0,0,,,,,,False
9.317605972290039,robot_triangle,0,11,0,-2.968259504736766,-12.277602658581879,1.0,0.0,0.0,-0.5979082719241615,0.8015645316284041,1.0,1.0,1.0,0.0,0.0,1.0,1.0,0,0,False,0.3,0.0,0.0,-0.2,0.15,0.0,-0.2,-0.15,0.0,,0,0,,,,,,False
9.67428207397461,robot_triangle,0,11,0,-2.9460972422806693,-12.402288763238055,1.0,0.0,0.0,-0.6010598435164672,0.7992040193292073,1.0,1.0,1.0,0.0,0.0,1.0,1.0,0,0,False,0.3,0.0,0.0,-0.2,0.15,0.0,-0.2,-0.15,0.0,,0,0,,,,,,False
9.84010100364685,robot_triangle,0,11,0,-2.924417799015477,-12.546171125181974,1.0,0.0,0.0,-0.6053402204398641,0.7959668444840002,1.0,1.0,1.0,0.0,0.0,1.0,1.0,0,0,False,0.3,0.0,0.0,-0.2,0.15,0.0,-0.2,-0.15,0.0,,0,0,,,,,,False
10.091164350509644,robot_triangle,0,11,0,-2.9036216424639067,-12.702093573348682,1.0,0.0,0.0,-0.6091422637752234,0.7930609702177986,1.0,1.0,1.0,0.0,0.0,1.0,1.0,0,0,False,0.3,0.0,0.0,-0.2,0.15,0.0,-0.2,-0.15,0.0,,0,0,,,,,,False
10.361839056015015,robot_triangle,0,11,0,-2.8887188441457,-12.83765755913745,1.0,0.0,0.0,-0.6113634397911613,0.7913499507087361,1.0,1.0,1.0,0.0,0.0,1.0,1.0,0,0,False,0.3,0.0,0.0,-0.2,0.15,0.0,-0.2,-0.15,0.0,,0,0,,,,,,False
10.574660778045654,robot_triangle,0,11,0,-2.868510501115816,-12.98124913333944,1.0,0.0,0.0,-0.6135621297838909,0.7896464480354837,1.0,1.0,1.0,0.0,0.0,1.0,1.0,0,0,False,0.3,0.0,0.0,-0.2,0.15,0.0,-0.2,-0.15,0.0,,0,0,,,,,,False
10.850504398345947,robot_triangle,0,11,0,-2.84807852026615,-13.124795640684832,1.0,0.0,0.0,-0.6153622727030847,0.7882444248668647,1.0,1.0,1.0,0.0,0.0,1.0,1.0,0,0,False,0.3,0.0,0.0,-0.2,0.15,0.0,-0.2,-0.15,0.0,,0,0,,,,,,False
11.122708559036255,robot_triangle,0,11,0,-2.8338783319102814,-13.257627780208884,1.0,0.0,0.0,-0.6176366481225709,0.7864635852319646,1.0,1.0,1.0,0.0,0.0,1.0,1.0,0,0,False,0.3,0.0,0.0,-0.2,0.15,0.0,-0.2,-0.15,0.0,,0,0,,,,,,False
11.349419832229614,robot_triangle,0,11,0,-2.8198868097561496,-13.380289491331794,1.0,0.0,0.0,-0.6185852169592452,0.7857177160784168,1.0,1.0,1.0,0.0,0.0,1.0,1.0,0,0,False,0.3,0.0,0.0,-0.2,0.15,0.0,-0.2,-0.15,0.0,,0,0,,,,,,False
11.591302633285522,robot_triangle,0,11,0,-2.8060175741292577,-13.501377739604127,1.0,0.0,0.0,-0.6185614534450873,0.785736424198281,1.0,1.0,1.0,0.0,0.0,1.0,1.0,0,0,False,0.3,0.0,0.0,-0.2,0.15,0.0,-0.2,-0.15,0.0,,0,0,,,,,,False
11.945392847061157,robot_triangle,0,11,0,-2.7917746429071975,-13.624215945229007,1.0,0.0,0.0,-0.6184563207661711,0.7858191772312324,1.0,1.0,1.0,0.0,0.0,1.0,1.0,0,0,False,0.3,0.0,0.0,-0.2,0.15,0.0,-0.2,-0.15,0.0,,0,0,,,,,,False
12.0710608959198,robot_triangle,0,11,0,-2.7716464501290607,-13.745656460096011,1.0,0.0,0.0,-0.6191510005774709,0.7852719519274305,1.0,1.0,1.0,0.0,0.0,1.0,1.0,0,0,False,0.3,0.0,0.0,-0.2,0.15,0.0,-0.2,-0.15,0.0,,0,0,,,,,,False
12.308605909347534,robot_triangle,0,11,0,-2.756311723621669,-13.868797617141137,1.0,0.0,0.0,-0.6203002113628705,0.7843644865642364,1.0,1.0,1.0,0.0,0.0,1.0,1.0,0,0,False,0.3,0.0,0.0,-0.2,0.15,0.0,-0.2,-0.15,0.0,,0,0,,,,,,False
12.630637168884277,robot_triangle,0,11,0,-2.7420797280723543,-13.991126153628324,1.0,0.0,0.0,-0.6209862896260518,0.7838214261529658,1.0,1.0,1.0,0.0,0.0,1.0,1.0,0,0,False,0.3,0.0,0.0,-0.2,0.15,0.0,-0.2,-0.15,0.0,,0,0,,,,,,False
12.87257194519043,robot_triangle,0,11,0,-2.72792190592808,-14.113129324067012,1.0,0.0,0.0,-0.6214921337496097,0.7834204029046967,1.0,1.0,1.0,0.0,0.0,1.0,1.0,0,0,False,0.3,0.0,0.0,-0.2,0.15,0.0,-0.2,-0.15,0.0,,0,0,,,,,,False
13.142585039138794,robot_triangle,0,11,0,-2.7133832788425574,-14.23534062103947,1.0,0.0,0.0,-0.6218966544535396,0.7830993239554577,1.0,1.0,1.0,0.0,0.0,1.0,1.0,0,0,False,0.3,0.0,0.0,-0.2,0.15,0.0,-0.2,-0.15,0.0,,0,0,,,,,,False
13.358790636062622,robot_triangle,0,11,0,-2.69270012223588,-14.357574465104113,1.0,0.0,0.0,-0.6226589280803558,0.7824933605352971,1.0,1.0,1.0,0.0,0.0,1.0,1.0,0,0,False,0.3,0.0,0.0,-0.2,0.15,0.0,-0.2,-0.15,0.0,,0,0,,,,,,False
13.624719858169556,robot_triangle,0,11,0,-2.6776705192469508,-14.479506862138644,1.0,0.0,0.0,-0.6237459938422032,0.7816271074916749,1.0,1.0,1.0,0.0,0.0,1.0,1.0,0,0,False,0.3,0.0,0.0,-0.2,0.15,0.0,-0.2,-0.15,0.0,,0,0,,,,,,False
13.86180853843689,robot_triangle,0,11,0,-2.6695468477283377,-14.602455943062363,1.0,0.0,0.0,-0.6247548802712052,0.7808209395100211,1.0,1.0,1.0,0.0,0.0,1.0,1.0,0,0,False,0.3,0.0,0.0,-0.2,0.15,0.0,-0.2,-0.15,0.0,,0,0,,,,,,False
14.118810415267944,robot_triangle,0,11,0,-2.649035154304123,-14.724801726180296,1.0,0.0,0.0,-0.6249336675806743,0.7806778536145158,1.0,1.0,1.0,0.0,0.0,1.0,1.0,0,0,False,0.3,0.0,0.0,-0.2,0.15,0.0,-0.2,-0.15,0.0,,0,0,,,,,,False
14.361735343933105,robot_triangle,0,11,0,-2.634080136147937,-14.857337906008524,1.0,0.0,0.0,-0.6241302017568444,0.7813203512356252,1.0,1.0,1.0,0.0,0.0,1.0,1.0,0,0,False,0.3,0.0,0.0,-0.2,0.15,0.0,-0.2,-0.15,0.0,,0,0,,,,,,False
14.560856103897095,robot_triangle,0,11,0,-2.6130139880823022,-14.981021952371268,1.0,0.0,0.0,-0.6233765731585328,0.7819217659313011,1.0,1.0,1.0,0.0,0.0,1.0,1.0,0,0,False,0.3,0.0,0.0,-0.2,0.15,0.0,-0.2,-0.15,0.0,,0,0,,,,,,False
14.815802574157715,robot_triangle,0,11,0,-2.597883782526246,-15.114043050410606,1.0,0.0,0.0,-0.622340478819023,0.7827466566030858,1.0,1.0,1.0,0.0,0.0,1.0,1.0,0,0,False,0.3,0.0,0.0,-0.2,0.15,0.0,-0.2,-0.15,0.0,,0,0,,,,,,False
15.098711013793945,robot_triangle,0,11,0,-2.577033967414289,-15.247722672399476,1.0,0.0,0.0,-0.6218370513093484,0.7831466539664808,1.0,1.0,1.0,0.0,0.0,1.0,1.0,0,0,False,0.3,0.0,0.0,-0.2,0.15,0.0,-0.2,-0.15,0.0,,0,0,,,,,,False
15.325330972671509,robot_triangle,0,11,0,-2.5552181887481806,-15.381572415610044,1.0,0.0,0.0,-0.6204023813679135,0.7842836764800234,1.0,1.0,1.0,0.0,0.0,1.0,1.0,0,0,False,0.3,0.0,0.0,-0.2,0.15,0.0,-0.2,-0.15,0.0,,0,0,,,,,,False
15.673936605453491,robot_triangle,0,11,0,-2.5399300840923664,-15.52540830557297,1.0,0.0,0.0,-0.6196544946653929,0.784874707989101,1.0,1.0,1.0,0.0,0.0,1.0,1.0,0,0,False,0.3,0.0,0.0,-0.2,0.15,0.0,-0.2,-0.15,0.0,,0,0,,,,,,False
15.907410144805908,robot_triangle,0,11,0,-2.5191699429964953,-15.659574684075846,1.0,0.0,0.0,-0.6191536205732309,0.7852698861735752,1.0,1.0,1.0,0.0,0.0,1.0,1.0,0,0,False,0.3,0.0,0.0,-0.2,0.15,0.0,-0.2,-0.15,0.0,,0,0,,,,,,False
16.13926362991333,robot_triangle,0,11,0,-2.4977368715695527,-15.803256496694408,1.0,0.0,0.0,-0.6188987072331489,0.7854708079776975,1.0,1.0,1.0,0.0,0.0,1.0,1.0,0,0,False,0.3,0.0,0.0,-0.2,0.15,0.0,-0.2,-0.15,0.0,,0,0,,,,,,False
16.349536895751953,robot_triangle,0,11,0,-2.4765439421378326,-15.946168219117194,1.0,0.0,0.0,-0.6188790782941975,0.7854862738773508,1.0,1.0,1.0,0.0,0.0,1.0,1.0,0,0,False,0.3,0.0,0.0,-0.2,0.15,0.0,-0.2,-0.15,0.0,,0,0,,,,,,False
16.597806453704834,robot_triangle,0,11,0,-2.454769298656406,-16.092967625160227,1.0,0.0,0.0,-0.6190471452802991,0.7853538259410927,1.0,1.0,1.0,0.0,0.0,1.0,1.0,0,0,False,0.3,0.0,0.0,-0.2,0.15,0.0,-0.2,-0.15,0.0,,0,0,,,,,,False
16.843769311904907,robot_triangle,0,11,0,-2.432972787921712,-16.238429017898927,1.0,0.0,0.0,-0.6189444107948898,0.7854347944583094,1.0,1.0,1.0,0.0,0.0,1.0,1.0,0,0,False,0.3,0.0,0.0,-0.2,0.15,0.0,-0.2,-0.15,0.0,,0,0,,,,,,False
17.08250141143799,robot_triangle,0,11,0,-2.411643563362934,-16.383462617066684,1.0,0.0,0.0,-0.6186811892332955,0.7856421488749666,1.0,1.0,1.0,0.0,0.0,1.0,1.0,0,0,False,0.3,0.0,0.0,-0.2,0.15,0.0,-0.2,-0.15,0.0,,0,0,,,,,,False
17.34020495414734,robot_triangle,0,11,0,-2.390078942538969,-16.528026353520318,1.0,0.0,0.0,-0.6183366093238878,0.7859133779048667,1.0,1.0,1.0,0.0,0.0,1.0,1.0,0,0,False,0.3,0.0,0.0,-0.2,0.15,0.0,-0.2,-0.15,0.0,,0,0,,,,,,False
17.564709424972534,robot_triangle,0,11,0,-2.362143926987598,-16.67275144041243,1.0,0.0,0.0,-0.6185184309224968,0.7857702912487673,1.0,1.0,1.0,0.0,0.0,1.0,1.0,0,0,False,0.3,0.0,0.0,-0.2,0.15,0.0,-0.2,-0.15,0.0,,0,0,,,,,,False
17.86396074295044,robot_triangle,0,11,0,-2.3466762798183325,-16.8171807586583,1.0,0.0,0.0,-0.6185107183458383,0.7857763621357639,1.0,1.0,1.0,0.0,0.0,1.0,1.0,0,0,False,0.3,0.0,0.0,-0.2,0.15,0.0,-0.2,-0.15,0.0,,0,0,,,,,,False
18.085981369018555,robot_triangle,0,11,0,-2.319389065377395,-16.971271676691817,1.0,0.0,0.0,-0.6184722379755326,0.7858066497895879,1.0,1.0,1.0,0.0,0.0,1.0,1.0,0,0,False,0.3,0.0,0.0,-0.2,0.15,0.0,-0.2,-0.15,0.0,,0,0,,,,,,False
18.348941326141357,robot_triangle,0,11,0,-2.304000906877195,-17.11618886108474,1.0,0.0,0.0,-0.6182860777322541,0.7859531322429252,1.0,1.0,1.0,0.0,0.0,1.0,1.0,0,0,False,0.3,0.0,0.0,-0.2,0.15,0.0,-0.2,-0.15,0.0,,0,0,,,,,,False
18.585062265396118,robot_triangle,0,11,0,-2.2763173270285413,-17.261502916720445,1.0,0.0,0.0,-0.6177206649512664,0.7863975966978569,1.0,1.0,1.0,0.0,0.0,1.0,1.0,0,0,False,0.3,0.0,0.0,-0.2,0.15,0.0,-0.2,-0.15,0.0,,0,0,,,,,,False
18.87381148338318,robot_triangle,0,11,0,-2.2484867114319895,-17.394375300546535,1.0,0.0,0.0,-0.6171497898430294,0.7868456881096221,1.0,1.0,1.0,0.0,0.0,1.0,1.0,0,0,False,0.3,0.0,0.0,-0.2,0.15,0.0,-0.2,-0.15,0.0,,0,0,,,,,,False
19.128215312957764,robot_triangle,0,11,0,-2.232590346202408,-17.538397029822388,1.0,0.0,0.0,-0.6167605294289895,0.7871508428112572,1.0,1.0,1.0,0.0,0.0,1.0,1.0,0,0,False,0.3,0.0,0.0,-0.2,0.15,0.0,-0.2,-0.15,0.0,,0,0,,,,,,False
19.31086540222168,robot_triangle,0,11,0,-2.205247525763524,-17.682390538822148,1.0,0.0,0.0,-0.6166804900346514,0.7872135499409434,1.0,1.0,1.0,0.0,0.0,1.0,1.0,0,0,False,0.3,0.0,0.0,-0.2,0.15,0.0,-0.2,-0.15,0.0,,0,0,,,,,,False
19.56313967704773,robot_triangle,0,11,0,-2.1833935089997714,-17.816079835436057,1.0,0.0,0.0,-0.6161933987074171,0.7875948802458039,1.0,1.0,1.0,0.0,0.0,1.0,1.0,0,0,False,0.3,0.0,0.0,-0.2,0.15,0.0,-0.2,-0.15,0.0,,0,0,,,,,,False
19.839422941207886,robot_triangle,0,11,0,-2.1616735716586812,-17.939661901915134,1.0,0.0,0.0,-0.6150807936397793,0.7884640875115742,1.0,1.0,1.0,0.0,0.0,1.0,1.0,0,0,False,0.3,0.0,0.0,-0.2,0.15,0.0,-0.2,-0.15,0.0,,0,0,,,,,,False
20.099448680877686,robot_triangle,0,11,0,-2.1400959580503676,-18.07157934313486,1.0,0.0,0.0,-0.6121875507226882,0.7907125917425092,1.0,1.0,1.0,0.0,0.0,1.0,1.0,0,0,False,0.3,0.0,0.0,-0.2,0.15,0.0,-0.2,-0.15,0.0,,0,0,,,,,,False
20.391154050827026,robot_triangle,0,11,0,-2.1248123644430463,-18.19471543678949,1.0,0.0,0.0,-0.6089537274927255,0.7932057474405462,1.0,1.0,1.0,0.0,0.0,1.0,1.0,0,0,False,0.3,0.0,0.0,-0.2,0.15,0.0,-0.2,-0.15,0.0,,0,0,,,,,,False
20.56419062614441,robot_triangle,0,11,0,-2.091166509809689,-18.316480067119493,1.0,0.0,0.0,-0.6049994358712033,0.7962258992242878,1.0,1.0,1.0,0.0,0.0,1.0,1.0,0,0,False,0.3,0.0,0.0,-0.2,0.15,0.0,-0.2,-0.15,0.0,,0,0,,,,,,False
20.83801031112671,robot_triangle,0,11,0,-2.068541722465864,-18.43821842443198,1.0,0.0,0.0,-0.6017513133606368,0.7986835148347239,1.0,1.0,1.0,0.0,0.0,1.0,1.0,0,0,False,0.3,0.0,0.0,-0.2,0.15,0.0,-0.2,-0.15,0.0,,0,0,,,,,,False
21.10096311569214,robot_triangle,0,11,0,-2.0403914402227867,-18.560231670509154,1.0,0.0,0.0,-0.5987537133480517,0.8009331999311298,1.0,1.0,1.0,0.0,0.0,1.0,1.0,0,0,False,0.3,0.0,0.0,-0.2,0.15,0.0,-0.2,-0.15,0.0,,0,0,,,,,,False
21.35703682899475,robot_triangle,0,11,0,-2.0119282941485817,-18.68247782304548,1.0,0.0,0.0,-0.5963585335837506,0.8027181942760726,1.0,1.0,1.0,0.0,0.0,1.0,1.0,0,0,False,0.3,0.0,0.0,-0.2,0.15,0.0,-0.2,-0.15,0.0,,0,0,,,,,,False
21.670315504074097,robot_triangle,0,11,0,-1.989726253978869,-18.804534805541405,1.0,0.0,0.0,-0.5951028870439222,0.8036495217643004,1.0,1.0,1.0,0.0,0.0,1.0,1.0,0,0,False,0.3,0.0,0.0,-0.2,0.15,0.0,-0.2,-0.15,0.0,,0,0,,,,,,False
21.913935899734497,robot_triangle,0,11,0,-1.9616142219336006,-18.926440389523997,1.0,0.0,0.0,-0.5942695597491173,0.8042659326091031,1.0,1.0,1.0,0.0,0.0,1.0,1.0,0,0,False,0.3,0.0,0.0,-0.2,0.15,0.0,-0.2,-0.15,0.0,,0,0,,,,,,False
22.11679172515869,robot_triangle,0,11,0,-1.9330620146921051,-19.038286592937276,1.0,0.0,0.0,-0.5936923922036027,0.8046920798911615,1.0,1.0,1.0,0.0,0.0,1.0,1.0,0,0,False,0.3,0.0,0.0,-0.2,0.15,0.0,-0.2,-0.15,0.0,,0,0,,,,,,False
22.37534213066101,robot_triangle,0,11,0,-1.9110486971987166,-19.159777199412037,1.0,0.0,0.0,-0.5929404782369851,0.8052462910613717,1.0,1.0,1.0,0.0,0.0,1.0,1.0,0,0,False,0.3,0.0,0.0,-0.2,0.15,0.0,-0.2,-0.15,0.0,,0,0,,,,,,False
22.59262466430664,robot_triangle,0,11,0,-1.8829585843603949,-19.27188056762821,1.0,0.0,0.0,-0.5926655278509924,0.8054486775065837,1.0,1.0,1.0,0.0,0.0,1.0,1.0,0,0,False,0.3,0.0,0.0,-0.2,0.15,0.0,-0.2,-0.15,0.0,,0,0,,,,,,False
22.845289945602417,robot_triangle,0,11,0,-1.8607610962400896,-19.392966818309475,1.0,0.0,0.0,-0.5926004895292378,0.8054965299799296,1.0,1.0,1.0,0.0,0.0,1.0,1.0,0,0,False,0.3,0.0,0.0,-0.2,0.15,0.0,-0.2,-0.15,0.0,,0,0,,,,,,False
23.11172342300415,robot_triangle,0,11,0,-1.826491913329525,-19.51499187870699,1.0,0.0,0.0,-0.5925883764005613,0.8055054414185833,1.0,1.0,1.0,0.0,0.0,1.0,1.0,0,0,False,0.3,0.0,0.0,-0.2,0.15,0.0,-0.2,-0.15,0.0,,0,0,,,,,,False
23.300785064697266,robot_triangle,0,11,0,-1.8037679902402113,-19.637583327881572,1.0,0.0,0.0,-0.5929586677770066,0.8052328969361086,1.0,1.0,1.0,0.0,0.0,1.0,1.0,0,0,False,0.3,0.0,0.0,-0.2,0.15,0.0,-0.2,-0.15,0.0,,0,0,,,,,,False
23.630788326263428,robot_triangle,0,11,0,-1.7756713147584533,-19.749432548476932,1.0,0.0,0.0,-0.5928386891837367,0.8053212331777356,1.0,1.0,1.0,0.0,0.0,1.0,1.0,0,0,False,0.3,0.0,0.0,-0.2,0.15,0.0,-0.2,-0.15,0.0,,0,0,,,,,,False
23.837388277053833,robot_triangle,0,11,0,-1.7472233803164985,-19.860578264514796,1.0,0.0,0.0,-0.5927921175433928,0.805355514899116,1.0,1.0,1.0,0.0,0.0,1.0,1.0,0,0,False,0.3,0.0,0.0,-0.2,0.15,0.0,-0.2,-0.15,0.0,,0,0,,,,,,False
24.09784483909607,robot_triangle,0,11,0,-1.7249350673733326,-19.981830725035177,1.0,0.0,0.0,-0.5929018356871468,0.8052747439469411,1.0,1.0,1.0,0.0,0.0,1.0,1.0,0,0,False,0.3,0.0,0.0,-0.2,0.15,0.0,-0.2,-0.15,0.0,,0,0,,,,,,False
24.33987045288086,robot_triangle,0,11,0,-1.6969810142042392,-20.104201372401825,1.0,0.0,0.0,-0.5933131778879356,0.804971721829108,1.0,1.0,1.0,0.0,0.0,1.0,1.0,0,0,False,0.3,0.0,0.0,-0.2,0.15,0.0,-0.2,-0.15,0.0,,0,0,,,,,,False
24.651777267456055,robot_triangle,0,11,0,-1.6750400124302363,-20.216262692458486,1.0,0.0,0.0,-0.5932801056211001,0.8049960970552692,1.0,1.0,1.0,0.0,0.0,1.0,1.0,0,0,False,0.3,0.0,0.0,-0.2,0.15,0.0,-0.2,-0.15,0.0,,0,0,,,,,,False
24.875861167907715,robot_triangle,0,11,0,-1.6404491675833457,-20.327568991218833,1.0,0.0,0.0,-0.5929158605577444,0.8052644176288118,1.0,1.0,1.0,0.0,0.0,1.0,1.0,0,0,False,0.3,0.0,0.0,-0.2,0.15,0.0,-0.2,-0.15,0.0,,0,0,,,,,,False
25.089321613311768,robot_triangle,0,11,0,-1.6177981772617105,-20.4589823868127,1.0,0.0,0.0,-0.5929327903586639,0.8052519519488845,1.0,1.0,1.0,0.0,0.0,1.0,1.0,0,0,False,0.3,0.0,0.0,-0.2,0.15,0.0,-0.2,-0.15,0.0,,0,0,,,,,,False
25.360562324523926,robot_triangle,0,11,0,-1.5898530060768887,-20.571841296939407,1.0,0.0,0.0,-0.5931884289850213,0.8050636544511759,1.0,1.0,1.0,0.0,0.0,1.0,1.0,0,0,False,0.3,0.0,0.0,-0.2,0.15,0.0,-0.2,-0.15,0.0,,0,0,,,,,,False
25.61804747581482,robot_triangle,0,11,0,-1.5678232830423193,-20.69366553757764,1.0,0.0,0.0,-0.5933231034169291,0.8049644060153865,1.0,1.0,1.0,0.0,0.0,1.0,1.0,0,0,False,0.3,0.0,0.0,-0.2,0.15,0.0,-0.2,-0.15,0.0,,0,0,,,,,,False
25.841259002685547,robot_triangle,0,11,0,-1.5397361670488459,-20.806165556226738,1.0,0.0,0.0,-0.593593315955234,0.8047651677683806,1.0,1.0,1.0,0.0,0.0,1.0,1.0,0,0,False,0.3,0.0,0.0,-0.2,0.15,0.0,-0.2,-0.15,0.0,,0,0,,,,,,False
26.0732843875885,robot_triangle,0,11,0,-1.5174837994187589,-20.928000207623967,1.0,0.0,0.0,-0.5936874779026177,0.8046957055816993,1.0,1.0,1.0,0.0,0.0,1.0,1.0,0,0,False,0.3,0.0,0.0,-0.2,0.15,0.0,-0.2,-0.15,0.0,,0,0,,,,,,False
26.325676679611206,robot_triangle,0,11,0,-1.4893569933884259,-21.04035097364113,1.0,0.0,0.0,-0.5937075178832711,0.8046809201223086,1.0,1.0,1.0,0.0,0.0,1.0,1.0,0,0,False,0.3,0.0,0.0,-0.2,0.15,0.0,-0.2,-0.15,0.0,,0,0,,,,,,False
26.60670828819275,robot_triangle,0,11,0,-1.460693509388685,-21.162323806906024,1.0,0.0,0.0,-0.5936344228457183,0.8047348457800437,1.0,1.0,1.0,0.0,0.0,1.0,1.0,0,0,False,0.3,0.0,0.0,-0.2,0.15,0.0,-0.2,-0.15,0.0,,0,0,,,,,,False
26.829960823059082,robot_triangle,0,11,0,-1.432378316194043,-21.28448679912975,1.0,0.0,0.0,-0.5935490198161958,0.8047978386372774,1.0,1.0,1.0,0.0,0.0,1.0,1.0,0,0,False,0.3,0.0,0.0,-0.2,0.15,0.0,-0.2,-0.15,0.0,,0,0,,,,,,False
27.21854543685913,robot_triangle,0,11,0,-1.4102829009748694,-21.40687677290203,1.0,0.0,0.0,-0.5932878775755545,0.804990369086422,1.0,1.0,1.0,0.0,0.0,1.0,1.0,0,0,False,0.3,0.0,0.0,-0.2,0.15,0.0,-0.2,-0.15,0.0,,0,0,,,,,,False
27.382187128067017,robot_triangle,0,11,0,-1.3756550129551652,-21.528959096948025,1.0,0.0,0.0,-0.5930910913005069,0.8051353658981661,1.0,1.0,1.0,0.0,0.0,1.0,1.0,0,0,False,0.3,0.0,0.0,-0.2,0.15,0.0,-0.2,-0.15,0.0,,0,0,,,,,,False
27.64511513710022,robot_triangle,0,11,0,-1.3464839805724813,-21.651352840832708,1.0,0.0,0.0,-0.5928728084661605,0.8052961150914907,1.0,1.0,1.0,0.0,0.0,1.0,1.0,0,0,False,0.3,0.0,0.0,-0.2,0.15,0.0,-0.2,-0.15,0.0,,0,0,,,,,,False
27.83824062347412,robot_triangle,0,11,0,-1.3243660997532476,-21.783252991810055,1.0,0.0,0.0,-0.5929477828693093,0.8052409122681053,1.0,1.0,1.0,0.0,0.0,1.0,1.0,0,0,False,0.3,0.0,0.0,-0.2,0.15,0.0,-0.2,-0.15,0.0,,0,0,,,,,,False
28.113611698150635,robot_triangle,0,11,0,-1.2964412053901242,-21.89648407641999,1.0,0.0,0.0,-0.5931103103414549,0.805121208121276,1.0,1.0,1.0,0.0,0.0,1.0,1.0,0,0,False,0.3,0.0,0.0,-0.2,0.15,0.0,-0.2,-0.15,0.0,,0,0,,,,,,False
28.358136892318726,robot_triangle,0,11,0,-1.2676155313944772,-22.02866261067545,1.0,0.0,0.0,-0.5931525144690435,0.8050901158125413,1.0,1.0,1.0,0.0,0.0,1.0,1.0,0,0,False,0.3,0.0,0.0,-0.2,0.15,0.0,-0.2,-0.15,0.0,,0,0,,,,,,False
28.56419801712036,robot_triangle,0,11,0,-1.2453772157904763,-22.152813662264105,1.0,0.0,0.0,-0.5932636158893145,0.8050082496856389,1.0,1.0,1.0,0.0,0.0,1.0,1.0,0,0,False,0.3,0.0,0.0,-0.2,0.15,0.0,-0.2,-0.15,0.0,,0,0,,,,,,False
28.862868070602417,robot_triangle,0,11,0,-1.2175804008570854,-22.285678483601348,1.0,0.0,0.0,-0.5934314446366095,0.8048845386243338,1.0,1.0,1.0,0.0,0.0,1.0,1.0,0,0,False,0.3,0.0,0.0,-0.2,0.15,0.0,-0.2,-0.15,0.0,,0,0,,,,,,False
29.08928370475769,robot_triangle,0,11,0,-1.1826612015977431,-22.418973756979835,1.0,0.0,0.0,-0.5938627406288812,0.8045663709680849,1.0,1.0,1.0,0.0,0.0,1.0,1.0,0,0,False,0.3,0.0,0.0,-0.2,0.15,0.0,-0.2,-0.15,0.0,,0,0,,,,,,False
29.301251649856567,robot_triangle,0,11,0,-1.153682158716164,-22.542046759217055,1.0,0.0,0.0,-0.5942082389649546,0.8043112387292418,1.0,1.0,1.0,0.0,0.0,1.0,1.0,0,0,False,0.3,0.0,0.0,-0.2,0.15,0.0,-0.2,-0.15,0.0,,0,0,,,,,,False
29.618698120117188,robot_triangle,0,11,0,-1.125018920306062,-22.664626031485092,1.0,0.0,0.0,-0.5944303992614488,0.8041470639341255,1.0,1.0,1.0,0.0,0.0,1.0,1.0,0,0,False,0.3,0.0,0.0,-0.2,0.15,0.0,-0.2,-0.15,0.0,,0,0,,,,,,False
29.81246566772461,robot_triangle,0,11,0,-1.1031058430437055,-22.786514230803377,1.0,0.0,0.0,-0.5942954080628909,0.8042468327294562,1.0,1.0,1.0,0.0,0.0,1.0,1.0,0,0,False,0.3,0.0,0.0,-0.2,0.15,0.0,-0.2,-0.15,0.0,,0,0,,,,,,False
30.12113046646118,robot_triangle,0,11,0,-1.07520473751026,-22.918986187151443,1.0,0.0,0.0,-0.5942588923097436,0.8042738146370281,1.0,1.0,1.0,0.0,0.0,1.0,1.0,0,0,False,0.3,0.0,0.0,-0.2,0.15,0.0,-0.2,-0.15,0.0,,0,0,,,,,,False
30.318474292755127,robot_triangle,0,11,0,-1.047165878373708,-23.040192467043582,1.0,0.0,0.0,-0.594157156436903,0.8043489749199744,1.0,1.0,1.0,0.0,0.0,1.0,1.0,0,0,False,0.3,0.0,0.0,-0.2,0.15,0.0,-0.2,-0.15,0.0,,0,0,,,,,,False
30.63323211669922,robot_triangle,0,11,0,-1.0183165639584724,-23.17429180880927,1.0,0.0,0.0,-0.594223527468979,0.8042999436791747,1.0,1.0,1.0,0.0,0.0,1.0,1.0,0,0,False,0.3,0.0,0.0,-0.2,0.15,0.0,-0.2,-0.15,0.0,,0,0,,,,,,False
30.851549863815308,robot_triangle,0,11,0,-0.9897609313682557,-23.29749565759554,1.0,0.0,0.0,-0.5941253944770573,0.8043724359011074,1.0,1.0,1.0,0.0,0.0,1.0,1.0,0,0,False,0.3,0.0,0.0,-0.2,0.15,0.0,-0.2,-0.15,0.0,,0,0,,,,,,False
31.086336851119995,robot_triangle,0,11,0,-0.9612895114663498,-23.429897581570692,1.0,0.0,0.0,-0.5943676135089263,0.8041934717539702,1.0,1.0,1.0,0.0,0.0,1.0,1.0,0,0,False,0.3,0.0,0.0,-0.2,0.15,0.0,-0.2,-0.15,0.0,,0,0,,,,,,False
31.33598279953003,robot_triangle,0,11,0,-0.9328307368679282,-23.54304343571769,1.0,0.0,0.0,-0.5945435968538723,0.8040633752634554,1.0,1.0,1.0,0.0,0.0,1.0,1.0,0,0,False,0.3,0.0,0.0,-0.2,0.15,0.0,-0.2,-0.15,0.0,,0,0,,,,,,False
31.561691522598267,robot_triangle,0,11,0,-0.9041511090810381,-23.664242396394666,1.0,0.0,0.0,-0.5943514496301067,0.8042054179888313,1.0,1.0,1.0,0.0,0.0,1.0,1.0,0,0,False,0.3,0.0,0.0,-0.2,0.15,0.0,-0.2,-0.15,0.0,,0,0,,,,,,False
31.876771450042725,robot_triangle,0,11,0,-0.8693097134072554,-23.786514799319608,1.0,0.0,0.0,-0.5944633423794182,0.8041227111374797,1.0,1.0,1.0,0.0,0.0,1.0,1.0,0,0,False,0.3,0.0,0.0,-0.2,0.15,0.0,-0.2,-0.15,0.0,,0,0,,,,,,False
32.085028409957886,robot_triangle,0,11,0,-0.8402932906329528,-23.90813889017934,1.0,0.0,0.0,-0.5945320031384601,0.804071947803286,1.0,1.0,1.0,0.0,0.0,1.0,1.0,0,0,False,0.3,0.0,0.0,-0.2,0.15,0.0,-0.2,-0.15,0.0,,0,0,,,,,,False
32.323657512664795,robot_triangle,0,11,0,-0.8180089765821175,-24.030356866085597,1.0,0.0,0.0,-0.5945711671708265,0.8040429883837811,1.0,1.0,1.0,0.0,0.0,1.0,1.0,0,0,False,0.3,0.0,0.0,-0.2,0.15,0.0,-0.2,-0.15,0.0,,0,0,,,,,,False
32.62174677848816,robot_triangle,0,11,0,-0.7834753021607312,-24.152663058400584,1.0,0.0,0.0,-0.5946833583239466,0.8039600135159413,1.0,1.0,1.0,0.0,0.0,1.0,1.0,0,0,False,0.3,0.0,0.0,-0.2,0.15,0.0,-0.2,-0.15,0.0,,0,0,,,,,,False
32.855406761169434,robot_triangle,0,11,0,-0.7610072915075976,-24.274440752824503,1.0,0.0,0.0,-0.5946920393833324,0.8039535921271159,1.0,1.0,1.0,0.0,0.0,1.0,1.0,0,0,False,0.3,0.0,0.0,-0.2,0.15,0.0,-0.2,-0.15,0.0,,0,0,,,,,,False
33.18871736526489,robot_triangle,0,11,0,-0.7392221666257661,-24.386586220837934,1.0,0.0,0.0,-0.5947117104626575,0.803939040872242,1.0,1.0,1.0,0.0,0.0,1.0,1.0,0,0,False,0.3,0.0,0.0,-0.2,0.15,0.0,-0.2,-0.15,0.0,,0,0,,,,,,False
33.33229875564575,robot_triangle,0,11,0,-0.7114750043460233,-24.507528524268473,1.0,0.0,0.0,-0.5945252591511182,0.8040769342738888,1.0,1.0,1.0,0.0,0.0,1.0,1.0,0,0,False,0.3,0.0,0.0,-0.2,0.15,0.0,-0.2,-0.15,0.0,,0,0,,,,,,False
33.596821308135986,robot_triangle,0,11,0,-0.689764730171385,-24.619238774514034,1.0,0.0,0.0,-0.594363156490677,0.8041967658517654,1.0,1.0,1.0,0.0,0.0,1.0,1.0,0,0,False,0.3,0.0,0.0,-0.2,0.15,0.0,-0.2,-0.15,0.0,,0,0,,,,,,False
33.85559940338135,robot_triangle,0,11,0,-0.6619049666061627,-24.720704672306617,1.0,0.0,0.0,-0.5945964111338442,0.8040243204448188,1.0,1.0,1.0,0.0,0.0,1.0,1.0,0,0,False,0.3,0.0,0.0,-0.2,0.15,0.0,-0.2,-0.15,0.0,,0,0,,,,,,False
34.090168714523315,robot_triangle,0,11,0,-0.633367589962438,-24.84030510691218,1.0,0.0,0.0,-0.5947783182194714,0.8038897636965016,1.0,1.0,1.0,0.0,0.0,1.0,1.0,0,0,False,0.3,0.0,0.0,-0.2,0.15,0.0,-0.2,-0.15,0.0,,0,0,,,,,,False
34.34415531158447,robot_triangle,0,11,0,-0.6048299949797191,-24.952323483521177,1.0,0.0,0.0,-0.594868349900782,0.8038231436617889,1.0,1.0,1.0,0.0,0.0,1.0,1.0,0,0,False,0.3,0.0,0.0,-0.2,0.15,0.0,-0.2,-0.15,0.0,,0,0,,,,,,False
34.57394528388977,robot_triangle,0,11,0,-0.5826659083940607,-25.063965460628804,1.0,0.0,0.0,-0.5949141343155109,0.8037892589426823,1.0,1.0,1.0,0.0,0.0,1.0,1.0,0,0,False,0.3,0.0,0.0,-0.2,0.15,0.0,-0.2,-0.15,0.0,,0,0,,,,,,False
34.83464956283569,robot_triangle,0,11,0,-0.5545853461276593,-25.17502935988362,1.0,0.0,0.0,-0.5948339962520696,0.8038485659020566,1.0,1.0,1.0,0.0,0.0,1.0,1.0,0,0,False,0.3,0.0,0.0,-0.2,0.15,0.0,-0.2,-0.15,0.0,,0,0,,,,,,False
35.10504937171936,robot_triangle,0,11,0,-0.5324166471707807,-25.276107458263425,1.0,0.0,0.0,-0.5948096808219278,0.8038665583295006,1.0,1.0,1.0,0.0,0.0,1.0,1.0,0,0,False,0.3,0.0,0.0,-0.2,0.15,0.0,-0.2,-0.15,0.0,,0,0,,,,,,False
35.33918786048889,robot_triangle,0,11,0,-0.5114742283820112,-25.385420788415768,1.0,0.0,0.0,-0.5949088807807783,0.8037931472513072,1.0,1.0,1.0,0.0,0.0,1.0,1.0,0,0,False,0.3,0.0,0.0,-0.2,0.15,0.0,-0.2,-0.15,0.0,,0,0,,,,,,False
35.57409310340881,robot_triangle,0,11,0,-0.49013120350763933,-25.494465553912505,1.0,0.0,0.0,-0.5946768662412169,0.8039648156216327,1.0,1.0,1.0,0.0,0.0,1.0,1.0,0,0,False,0.3,0.0,0.0,-0.2,0.15,0.0,-0.2,-0.15,0.0,,0,0,,,,,,False
35.81741404533386,robot_triangle,0,11,0,-0.4556579246791475,-25.596278137862935,1.0,0.0,0.0,-0.5942133939463535,0.8043074303117905,1.0,1.0,1.0,0.0,0.0,1.0,1.0,0,0,False,0.3,0.0,0.0,-0.2,0.15,0.0,-0.2,-0.15,0.0,,0,0,,,,,,False
36.114484786987305,robot_triangle,0,11,0,-0.4393529950618596,-25.706539242379506,1.0,0.0,0.0,-0.5934235011157833,0.8048903952237757,1.0,1.0,1.0,0.0,0.0,1.0,1.0,0,0,False,0.3,0.0,0.0,-0.2,0.15,0.0,-0.2,-0.15,0.0,,0,0,,,,,,False
36.354838609695435,robot_triangle,0,11,0,-0.4120205688858445,-25.798181886711514,1.0,0.0,0.0,-0.5928186660362378,0.8053359728703391,1.0,1.0,1.0,0.0,0.0,1.0,1.0,0,0,False,0.3,0.0,0.0,-0.2,0.15,0.0,-0.2,-0.15,0.0,,0,0,,,,,,False
36.595065116882324,robot_triangle,0,11,0,-0.38321252097682246,-25.90858307240752,1.0,0.0,0.0,-0.5939588353428963,0.8044954331244586,1.0,1.0,1.0,0.0,0.0,1.0,1.0,0,0,False,0.3,0.0,0.0,-0.2,0.15,0.0,-0.2,-0.15,0.0,,0,0,,,,,,False
36.84276270866394,robot_triangle,0,11,0,-0.3606879152693459,-26.030985546871666,1.0,0.0,0.0,-0.5950410905870238,0.803695278394122,1.0,1.0,1.0,0.0,0.0,1.0,1.0,0,0,False,0.3,0.0,0.0,-0.2,0.15,0.0,-0.2,-0.15,0.0,,0,0,,,,,,False
37.09140110015869,robot_triangle,0,11,0,-0.33932716920574835,-26.153496546342133,1.0,0.0,0.0,-0.595749916423744,0.8031699926423435,1.0,1.0,1.0,0.0,0.0,1.0,1.0,0,0,False,0.3,0.0,0.0,-0.2,0.15,0.0,-0.2,-0.15,0.0,,0,0,,,,,,False
37.32992768287659,robot_triangle,0,11,0,-0.31115735315385973,-26.2665939186163,1.0,0.0,0.0,-0.5963709942068162,0.8027089368312612,1.0,1.0,1.0,0.0,0.0,1.0,1.0,0,0,False,0.3,0.0,0.0,-0.2,0.15,0.0,-0.2,-0.15,0.0,,0,0,,,,,,False
37.55986666679382,robot_triangle,0,11,0,-0.28248790621745196,-26.38865380349429,1.0,0.0,0.0,-0.5969783633449472,0.8022573363316712,1.0,1.0,1.0,0.0,0.0,1.0,1.0,0,0,False,0.3,0.0,0.0,-0.2,0.15,0.0,-0.2,-0.15,0.0,,0,0,,,,,,False
37.86523127555847,robot_triangle,0,11,0,-0.2541829548192681,-26.520423507317567,1.0,0.0,0.0,-0.597166962397206,0.8021169609360557,1.0,1.0,1.0,0.0,0.0,1.0,1.0,0,0,False,0.3,0.0,0.0,-0.2,0.15,0.0,-0.2,-0.15,0.0,,0,0,,,,,,False
38.077067613601685,robot_triangle,0,11,0,-0.22612958227345448,-26.63211686187877,1.0,0.0,0.0,-0.5973684718058528,0.8019669001226547,1.0,1.0,1.0,0.0,0.0,1.0,1.0,0,0,False,0.3,0.0,0.0,-0.2,0.15,0.0,-0.2,-0.15,0.0,,0,0,,,,,,False
38.378385066986084,robot_triangle,0,11,0,-0.204540063621809,-26.731766339134147,1.0,0.0,0.0,-0.5981949094114423,0.8013506413264024,1.0,1.0,1.0,0.0,0.0,1.0,1.0,0,0,False,0.3,0.0,0.0,-0.2,0.15,0.0,-0.2,-0.15,0.0,,0,0,,,,,,False
38.61838960647583,robot_triangle,0,11,0,-0.19319952460232453,-26.849635446841475,1.0,0.0,0.0,-0.6337036178590305,0.7735759333849366,1.0,1.0,1.0,0.0,0.0,1.0,1.0,0,0,False,0.3,0.0,0.0,-0.2,0.15,0.0,-0.2,-0.15,0.0,,0,0,,,,,,False
38.81299042701721,robot_triangle,0,11,0,-0.23793895486304026,-26.982716835357465,1.0,0.0,0.0,0.7129228613720868,-0.701242464296791,1.0,1.0,1.0,0.0,0.0,1.0,1.0,0,0,False,0.3,0.0,0.0,-0.2,0.15,0.0,-0.2,-0.15,0.0,,0,0,,,,,,False
39.12216520309448,robot_triangle,0,11,0,-0.366711197464293,-27.11378021468254,1.0,0.0,0.0,0.8062064664131766,-0.591634290346308,1.0,1.0,1.0,0.0,0.0,1.0,1.0,0,0,False,0.3,0.0,0.0,-0.2,0.15,0.0,-0.2,-0.15,0.0,,0,0,,,,,,False
39.34141969680786,robot_triangle,0,11,0,-0.528902781867143,-27.20116756497534,1.0,0.0,0.0,0.8791241986241118,-0.47659274374827953,1.0,1.0,1.0,0.0,0.0,1.0,1.0,0,0,False,0.3,0.0,0.0,-0.2,0.15,0.0,-0.2,-0.15,0.0,,0,0,,,,,,False
39.62932348251343,robot_triangle,0,11,0,-0.7144955384679811,-27.257887979424403,1.0,0.0,0.0,0.937325848332022,-0.3484540917375704,1.0,1.0,1.0,0.0,0.0,1.0,1.0,0,0,False,0.3,0.0,0.0,-0.2,0.15,0.0,-0.2,-0.15,0.0,,0,0,,,,,,False
39.85018181800842,robot_triangle,0,11,0,-0.9018734011244596,-27.231295823064013,1.0,0.0,0.0,0.9738143254573982,-0.22734480318219852,1.0,1.0,1.0,0.0,0.0,1.0,1.0,0,0,False,0.3,0.0,0.0,-0.2,0.15,0.0,-0.2,-0.15,0.0,,0,0,,,,,,False
40.11462688446045,robot_triangle,0,11,0,-1.0829528888400237,-27.134639945246942,1.0,0.0,0.0,0.9959911907191692,-0.08945137231933017,1.0,1.0,1.0,0.0,0.0,1.0,1.0,0,0,False,0.3,0.0,0.0,-0.2,0.15,0.0,-0.2,-0.15,0.0,,0,0,,,,,,False
40.3091778755188,robot_triangle,0,11,0,-1.2147746640007397,-27.01764329460695,1.0,0.0,0.0,0.9991231153363863,0.04186884761387815,1.0,1.0,1.0,0.0,0.0,1.0,1.0,0,0,False,0.3,0.0,0.0,-0.2,0.15,0.0,-0.2,-0.15,0.0,,0,0,,,,,,False
40.64108467102051,robot_triangle,0,11,0,-1.2968733907071521,-26.870115930640033,1.0,0.0,0.0,0.9854045011516562,0.17022916644939426,1.0,1.0,1.0,0.0,0.0,1.0,1.0,0,0,False,0.3,0.0,0.0,-0.2,0.15,0.0,-0.2,-0.15,0.0,,0,0,,,,,,False
40.89318060874939,robot_triangle,0,11,0,-1.3188174590382187,-26.742211121317002,1.0,0.0,0.0,0.9679566209487644,0.2511174624781199,1.0,1.0,1.0,0.0,0.0,1.0,1.0,0,0,False,0.3,0.0,0.0,-0.2,0.15,0.0,-0.2,-0.15,0.0,,0,0,,,,,,False
41.09944534301758,robot_triangle,0,11,0,-1.3315324676287,-26.645973142032798,1.0,0.0,0.0,0.9491724691374959,0.314756451612083,1.0,1.0,1.0,0.0,0.0,1.0,1.0,0,0,False,0.3,0.0,0.0,-0.2,0.15,0.0,-0.2,-0.15,0.0,,0,0,,,,,,False
41.37595343589783,robot_triangle,0,11,0,-1.3483707912600682,-26.590123900834556,1.0,0.0,0.0,0.9337101030195725,0.35802994779652086,1.0,1.0,1.0,0.0,0.0,1.0,1.0,0,0,False,0.3,0.0,0.0,-0.2,0.15,0.0,-0.2,-0.15,0.0,,0,0,,,,,,False
41.60293388366699,robot_triangle,0,11,0,-1.355329029595651,-26.552314657331227,1.0,0.0,0.0,0.9178811557553089,0.3968553690065164,1.0,1.0,1.0,0.0,0.0,1.0,1.0,0,0,False,0.3,0.0,0.0,-0.2,0.15,0.0,-0.2,-0.15,0.0,,0,0,,,,,,False
41.84569263458252,robot_triangle,0,11,0,-1.3607482118035361,-26.505337211796693,1.0,0.0,0.0,0.9046439143654232,0.4261682627807997,1.0,1.0,1.0,0.0,0.0,1.0,1.0,0,0,False,0.3,0.0,0.0,-0.2,0.15,0.0,-0.2,-0.15,0.0,,0,0,,,,,,False
42.12374019622803,robot_triangle,0,11,0,-1.3688030607962207,-26.479086793462553,1.0,0.0,0.0,0.8946940637946929,0.4466794512964953,1.0,1.0,1.0,0.0,0.0,1.0,1.0,0,0,False,0.3,0.0,0.0,-0.2,0.15,0.0,-0.2,-0.15,0.0,,0,0,,,,,,False
42.32677340507507,robot_triangle,0,11,0,-1.3809418631429151,-26.443058893143316,1.0,0.0,0.0,0.8877960062869817,0.4602371684478399,1.0,1.0,1.0,0.0,0.0,1.0,1.0,0,0,False,0.3,0.0,0.0,-0.2,0.15,0.0,-0.2,-0.15,0.0,,0,0,,,,,,False
42.643868923187256,robot_triangle,0,11,0,-1.4043812299592784,-26.414826124805955,1.0,0.0,0.0,0.8892284994839212,0.4574633053104631,1.0,1.0,1.0,0.0,0.0,1.0,1.0,0,0,False,0.3,0.0,0.0,-0.2,0.15,0.0,-0.2,-0.15,0.0,,0,0,,,,,,False
42.84978747367859,robot_triangle,0,11,0,-1.4329363720145005,-26.35816859507364,1.0,0.0,0.0,0.8942018673191398,0.44766395932994607,1.0,1.0,1.0,0.0,0.0,1.0,1.0,0,0,False,0.3,0.0,0.0,-0.2,0.15,0.0,-0.2,-0.15,0.0,,0,0,,,,,,False
43.16118907928467,robot_triangle,0,11,0,-1.464037184166414,-26.30104826383976,1.0,0.0,0.0,0.8985784591156963,0.4388128904365286,1.0,1.0,1.0,0.0,0.0,1.0,1.0,0,0,False,0.3,0.0,0.0,-0.2,0.15,0.0,-0.2,-0.15,0.0,,0,0,,,,,,False
43.37791609764099,robot_triangle,0,11,0,-1.4991218305586687,-26.253375403148826,1.0,0.0,0.0,0.8996959055879984,0.43651721325532117,1.0,1.0,1.0,0.0,0.0,1.0,1.0,0,0,False,0.3,0.0,0.0,-0.2,0.15,0.0,-0.2,-0.15,0.0,,0,0,,,,,,False
43.59197545051575,robot_triangle,0,11,0,-1.525157996120131,-26.187293524113908,1.0,0.0,0.0,0.8986200113156078,0.4387277917606052,1.0,1.0,1.0,0.0,0.0,1.0,1.0,0,0,False,0.3,0.0,0.0,-0.2,0.15,0.0,-0.2,-0.15,0.0,,0,0,,,,,,False
43.84144306182861,robot_triangle,0,11,0,-1.5516670208691785,-26.11945723766573,1.0,0.0,0.0,0.896078771765199,0.44389507182640847,1.0,1.0,1.0,0.0,0.0,1.0,1.0,0,0,False,0.3,0.0,0.0,-0.2,0.15,0.0,-0.2,-0.15,0.0,,0,0,,,,,,False
44.06014704704285,robot_triangle,0,11,0,-1.563775264269916,-26.052874048003172,1.0,0.0,0.0,0.8915674689085554,0.45288789825296943,1.0,1.0,1.0,0.0,0.0,1.0,1.0,0,0,False,0.3,0.0,0.0,-0.2,0.15,0.0,-0.2,-0.15,0.0,,0,0,,,,,,False
44.3960075378418,robot_triangle,0,11,0,-1.5774764896689049,-25.983948646181716,1.0,0.0,0.0,0.8861735861288916,0.4633534021105919,1.0,1.0,1.0,0.0,0.0,1.0,1.0,0,0,False,0.3,0.0,0.0,-0.2,0.15,0.0,-0.2,-0.15,0.0,,0,0,,,,,,False
44.630677938461304,robot_triangle,0,11,0,-1.5960515318218071,-25.916909299525514,1.0,0.0,0.0,0.8826051052610606,0.4701151222489147,1.0,1.0,1.0,0.0,0.0,1.0,1.0,0,0,False,0.3,0.0,0.0,-0.2,0.15,0.0,-0.2,-0.15,0.0,,0,0,,,,,,False
44.820801734924316,robot_triangle,0,11,0,-1.6114069249295466,-25.8465697958005,1.0,0.0,0.0,0.8837485437358968,0.46796208334082107,1.0,1.0,1.0,0.0,0.0,1.0,1.0,0,0,False,0.3,0.0,0.0,-0.2,0.15,0.0,-0.2,-0.15,0.0,,0,0,,,,,,False
45.0817289352417,robot_triangle,0,11,0,-1.6323485800455257,-25.758513707081995,1.0,0.0,0.0,0.8863738247386893,0.4629702396678509,1.0,1.0,1.0,0.0,0.0,1.0,1.0,0,0,False,0.3,0.0,0.0,-0.2,0.15,0.0,-0.2,-0.15,0.0,,0,0,,,,,,False
45.3340904712677,robot_triangle,0,11,0,-1.658980286993864,-25.660580557713494,1.0,0.0,0.0,0.8905018671051628,0.45497958710498115,1.0,1.0,1.0,0.0,0.0,1.0,1.0,0,0,False,0.3,0.0,0.0,-0.2,0.15,0.0,-0.2,-0.15,0.0,,0,0,,,,,,False
45.58500409126282,robot_triangle,0,11,0,-1.6794969239512063,-25.580294774558176,1.0,0.0,0.0,0.8954657744756228,0.4451303705014666,1.0,1.0,1.0,0.0,0.0,1.0,1.0,0,0,False,0.3,0.0,0.0,-0.2,0.15,0.0,-0.2,-0.15,0.0,,0,0,,,,,,False
45.874107837677,robot_triangle,0,11,0,-1.706260094348475,-25.482509963597558,1.0,0.0,0.0,0.8995974782214148,0.43672002149852385,1.0,1.0,1.0,0.0,0.0,1.0,1.0,0,0,False,0.3,0.0,0.0,-0.2,0.15,0.0,-0.2,-0.15,0.0,,0,0,,,,,,False
46.15431094169617,robot_triangle,0,11,0,-1.7353038167072081,-25.39408061034303,1.0,0.0,0.0,0.9030180805258479,0.4296025445029549,1.0,1.0,1.0,0.0,0.0,1.0,1.0,0,0,False,0.3,0.0,0.0,-0.2,0.15,0.0,-0.2,-0.15,0.0,,0,0,,,,,,False
46.34979295730591,robot_triangle,0,11,0,-1.7559513298678484,-25.29357556539897,1.0,0.0,0.0,0.9051393005900783,0.4251150979761879,1.0,1.0,1.0,0.0,0.0,1.0,1.0,0,0,False,0.3,0.0,0.0,-0.2,0.15,0.0,-0.2,-0.15,0.0,,0,0,,,,,,False
46.594043493270874,robot_triangle,0,11,0,-1.7847161706662646,-25.193679761416536,1.0,0.0,0.0,0.9069753789988497,0.42118364390120006,1.0,1.0,1.0,0.0,0.0,1.0,1.0,0,0,False,0.3,0.0,0.0,-0.2,0.15,0.0,-0.2,-0.15,0.0,,0,0,,,,,,False
46.875550270080566,robot_triangle,0,11,0,-1.8066273431815005,-25.0723497598808,1.0,0.0,0.0,0.9085213447439132,0.41783844502954914,1.0,1.0,1.0,0.0,0.0,1.0,1.0,0,0,False,0.3,0.0,0.0,-0.2,0.15,0.0,-0.2,-0.15,0.0,,0,0,,,,,,False
47.09446740150452,robot_triangle,0,11,0,-1.8271618146990014,-24.960933737077017,1.0,0.0,0.0,0.9095419918087231,0.4156120368043023,1.0,1.0,1.0,0.0,0.0,1.0,1.0,0,0,False,0.3,0.0,0.0,-0.2,0.15,0.0,-0.2,-0.15,0.0,,0,0,,,,,,False
47.34012269973755,robot_triangle,0,11,0,-1.8495816471209363,-24.838687049210737,1.0,0.0,0.0,0.9102244899512058,0.41411517467133135,1.0,1.0,1.0,0.0,0.0,1.0,1.0,0,0,False,0.3,0.0,0.0,-0.2,0.15,0.0,-0.2,-0.15,0.0,,0,0,,,,,,False
47.56942129135132,robot_triangle,0,11,0,-1.8774059837613841,-24.70581272909108,1.0,0.0,0.0,0.91067820423735,0.4131164585525919,1.0,1.0,1.0,0.0,0.0,1.0,1.0,0,0,False,0.3,0.0,0.0,-0.2,0.15,0.0,-0.2,-0.15,0.0,,0,0,,,,,,False
47.83654022216797,robot_triangle,0,11,0,-1.898592573949771,-24.583181167542186,1.0,0.0,0.0,0.9110819185078274,0.4122253482842807,1.0,1.0,1.0,0.0,0.0,1.0,1.0,0,0,False,0.3,0.0,0.0,-0.2,0.15,0.0,-0.2,-0.15,0.0,,0,0,,,,,,False
48.12014937400818,robot_triangle,0,11,0,-1.9198492957967872,-24.450429562046853,1.0,0.0,0.0,0.9113264113069763,0.4116845540633602,1.0,1.0,1.0,0.0,0.0,1.0,1.0,0,0,False,0.3,0.0,0.0,-0.2,0.15,0.0,-0.2,-0.15,0.0,,0,0,,,,,,False
48.38925004005432,robot_triangle,0,11,0,-1.9478997940416953,-24.326977534220887,1.0,0.0,0.0,0.9116194218887597,0.4110353143407554,1.0,1.0,1.0,0.0,0.0,1.0,1.0,0,0,False,0.3,0.0,0.0,-0.2,0.15,0.0,-0.2,-0.15,0.0,,0,0,,,,,,False
48.634016275405884,robot_triangle,0,11,0,-1.9691462644208326,-24.205543585753432,1.0,0.0,0.0,0.911662801175034,0.4109390915375301,1.0,1.0,1.0,0.0,0.0,1.0,1.0,0,0,False,0.3,0.0,0.0,-0.2,0.15,0.0,-0.2,-0.15,0.0,,0,0,,,,,,False
48.85970878601074,robot_triangle,0,11,0,-1.9907777491901364,-24.072744674831977,1.0,0.0,0.0,0.9115945207889822,0.4110905370687897,1.0,1.0,1.0,0.0,0.0,1.0,1.0,0,0,False,0.3,0.0,0.0,-0.2,0.15,0.0,-0.2,-0.15,0.0,,0,0,,,,,,False
49.03337121009827,robot_triangle,0,11,0,-2.0188942845924904,-23.939285607939997,1.0,0.0,0.0,0.9115323312215116,0.41122841479873035,1.0,1.0,1.0,0.0,0.0,1.0,1.0,0,0,False,0.3,0.0,0.0,-0.2,0.15,0.0,-0.2,-0.15,0.0,,0,0,,,,,,False
49.33484125137329,robot_triangle,0,11,0,-2.0339066836098363,-23.815915401424018,1.0,0.0,0.0,0.9114285359585987,0.41145841082710327,1.0,1.0,1.0,0.0,0.0,1.0,1.0,0,0,False,0.3,0.0,0.0,-0.2,0.15,0.0,-0.2,-0.15,0.0,,0,0,,,,,,False
49.593207597732544,robot_triangle,0,11,0,-2.0552550064816995,-23.683845662179078,1.0,0.0,0.0,0.9113097597269928,0.41172141288294756,1.0,1.0,1.0,0.0,0.0,1.0,1.0,0,0,False,0.3,0.0,0.0,-0.2,0.15,0.0,-0.2,-0.15,0.0,,0,0,,,,,,False
49.850483655929565,robot_triangle,0,11,0,-2.0756633474300754,-23.561199451142713,1.0,0.0,0.0,0.9112401307616836,0.4118754958594037,1.0,1.0,1.0,0.0,0.0,1.0,1.0,0,0,False,0.3,0.0,0.0,-0.2,0.15,0.0,-0.2,-0.15,0.0,,0,0,,,,,,False
50.10837960243225,robot_triangle,0,11,0,-2.0969642404618027,-23.438973912666828,1.0,0.0,0.0,0.9111200477976892,0.4121410662638905,1.0,1.0,1.0,0.0,0.0,1.0,1.0,0,0,False,0.3,0.0,0.0,-0.2,0.15,0.0,-0.2,-0.15,0.0,,0,0,,,,,,False
50.37203407287598,robot_triangle,0,11,0,-2.119201038200789,-23.32689163319755,1.0,0.0,0.0,0.9108541007344009,0.4127284908693922,1.0,1.0,1.0,0.0,0.0,1.0,1.0,0,0,False,0.3,0.0,0.0,-0.2,0.15,0.0,-0.2,-0.15,0.0,,0,0,,,,,,False
50.620423555374146,robot_triangle,0,11,0,-2.1408871798879567,-23.205569707960088,1.0,0.0,0.0,0.9105987777805198,0.4132915023377853,1.0,1.0,1.0,0.0,0.0,1.0,1.0,0,0,False,0.3,0.0,0.0,-0.2,0.15,0.0,-0.2,-0.15,0.0,,0,0,,,,,,False
50.87655735015869,robot_triangle,0,11,0,-2.1551852173246493,-23.083879693771237,1.0,0.0,0.0,0.9101471573441309,0.41428510953013725,1.0,1.0,1.0,0.0,0.0,1.0,1.0,0,0,False,0.3,0.0,0.0,-0.2,0.15,0.0,-0.2,-0.15,0.0,,0,0,,,,,,False
51.118783950805664,robot_triangle,0,11,0,-2.169768832894526,-22.971957591375165,1.0,0.0,0.0,0.9097383488756781,0.4151820523396394,1.0,1.0,1.0,0.0,0.0,1.0,1.0,0,0,False,0.3,0.0,0.0,-0.2,0.15,0.0,-0.2,-0.15,0.0,,0,0,,,,,,False
51.317514181137085,robot_triangle,0,11,0,-2.1914047934518592,-22.85026574255703,1.0,0.0,0.0,0.9096148700625181,0.41545251011535417,1.0,1.0,1.0,0.0,0.0,1.0,1.0,0,0,False,0.3,0.0,0.0,-0.2,0.15,0.0,-0.2,-0.15,0.0,,0,0,,,,,,False
51.65806317329407,robot_triangle,0,11,0,-2.2132882875159052,-22.7385026619639,1.0,0.0,0.0,0.9093379407772428,0.41605830055775056,1.0,1.0,1.0,0.0,0.0,1.0,1.0,0,0,False,0.3,0.0,0.0,-0.2,0.15,0.0,-0.2,-0.15,0.0,,0,0,,,,,,False
51.8609459400177,robot_triangle,0,11,0,-2.233525560118074,-22.629531422461774,1.0,0.0,0.0,0.9092177142810858,0.41632096756886733,1.0,1.0,1.0,0.0,0.0,1.0,1.0,0,0,False,0.3,0.0,0.0,-0.2,0.15,0.0,-0.2,-0.15,0.0,,0,0,,,,,,False
52.11961269378662,robot_triangle,0,11,0,-2.249953001081156,-22.50687857637523,1.0,0.0,0.0,0.9090624572393601,0.4166598718834544,1.0,1.0,1.0,0.0,0.0,1.0,1.0,0,0,False,0.3,0.0,0.0,-0.2,0.15,0.0,-0.2,-0.15,0.0,,0,0,,,,,,False
52.33437418937683,robot_triangle,0,11,0,-2.264446684844535,-22.394689720903315,1.0,0.0,0.0,0.9089434512249788,0.4169194196427226,1.0,1.0,1.0,0.0,0.0,1.0,1.0,0,0,False,0.3,0.0,0.0,-0.2,0.15,0.0,-0.2,-0.15,0.0,,0,0,,,,,,False
52.63359618186951,robot_triangle,0,11,0,-2.2857873698292868,-22.283572978210525,1.0,0.0,0.0,0.90887969846032,0.417058381676568,1.0,1.0,1.0,0.0,0.0,1.0,1.0,0,0,False,0.3,0.0,0.0,-0.2,0.15,0.0,-0.2,-0.15,0.0,,0,0,,,,,,False
52.88449454307556,robot_triangle,0,11,0,-2.30070369380416,-22.17291522036377,1.0,0.0,0.0,0.9088965765783553,0.4170215978629235,1.0,1.0,1.0,0.0,0.0,1.0,1.0,0,0,False,0.3,0.0,0.0,-0.2,0.15,0.0,-0.2,-0.15,0.0,,0,0,,,,,,False
53.119030237197876,robot_triangle,0,11,0,-2.32186317653977,-22.061881154105752,1.0,0.0,0.0,0.90904103506402,0.41670660730271025,1.0,1.0,1.0,0.0,0.0,1.0,1.0,0,0,False,0.3,0.0,0.0,-0.2,0.15,0.0,-0.2,-0.15,0.0,,0,0,,,,,,False
53.43883037567139,robot_triangle,0,11,0,-2.33678591563776,-21.951012835431424,1.0,0.0,0.0,0.9090285375996436,0.41673386930924305,1.0,1.0,1.0,0.0,0.0,1.0,1.0,0,0,False,0.3,0.0,0.0,-0.2,0.15,0.0,-0.2,-0.15,0.0,,0,0,,,,,,False
53.62188673019409,robot_triangle,0,11,0,-2.3511527930304448,-21.840120547831535,1.0,0.0,0.0,0.9091837468004897,0.4163951423273608,1.0,1.0,1.0,0.0,0.0,1.0,1.0,0,0,False,0.3,0.0,0.0,-0.2,0.15,0.0,-0.2,-0.15,0.0,,0,0,,,,,,False
53.85118317604065,robot_triangle,0,11,0,-2.365244542210828,-21.73983367929055,1.0,0.0,0.0,0.9094413617464168,0.41583218916387776,1.0,1.0,1.0,0.0,0.0,1.0,1.0,0,0,False,0.3,0.0,0.0,-0.2,0.15,0.0,-0.2,-0.15,0.0,,0,0,,,,,,False
54.102632999420166,robot_triangle,0,11,0,-2.38640148189693,-21.639504187052843,1.0,0.0,0.0,0.910232702898188,0.4140971221521094,1.0,1.0,1.0,0.0,0.0,1.0,1.0,0,0,False,0.3,0.0,0.0,-0.2,0.15,0.0,-0.2,-0.15,0.0,,0,0,,,,,,False
54.33079767227173,robot_triangle,0,11,0,-2.4021295734069272,-21.539109486728105,1.0,0.0,0.0,0.9109717289598337,0.41246879765132693,1.0,1.0,1.0,0.0,0.0,1.0,1.0,0,0,False,0.3,0.0,0.0,-0.2,0.15,0.0,-0.2,-0.15,0.0,,0,0,,,,,,False
54.59188961982727,robot_triangle,0,11,0,-2.4235642952446503,-21.428684866758875,1.0,0.0,0.0,0.9115303661208763,0.41123277062941016,1.0,1.0,1.0,0.0,0.0,1.0,1.0,0,0,False,0.3,0.0,0.0,-0.2,0.15,0.0,-0.2,-0.15,0.0,,0,0,,,,,,False
54.83851480484009,robot_triangle,0,11,0,-2.438833460716129,-21.317354590656915,1.0,0.0,0.0,0.9118970581867049,0.4104189996460122,1.0,1.0,1.0,0.0,0.0,1.0,1.0,0,0,False,0.3,0.0,0.0,-0.2,0.15,0.0,-0.2,-0.15,0.0,,0,0,,,,,,False
55.10117292404175,robot_triangle,0,11,0,-2.460589340412785,-21.2058956829781,1.0,0.0,0.0,0.9121412697690799,0.4098759617055513,1.0,1.0,1.0,0.0,0.0,1.0,1.0,0,0,False,0.3,0.0,0.0,-0.2,0.15,0.0,-0.2,-0.15,0.0,,0,0,,,,,,False
55.32339811325073,robot_triangle,0,11,0,-2.476315988145571,-21.083955157575684,1.0,0.0,0.0,0.9124102382153652,0.4092768710784677,1.0,1.0,1.0,0.0,0.0,1.0,1.0,0,0,False,0.3,0.0,0.0,-0.2,0.15,0.0,-0.2,-0.15,0.0,,0,0,,,,,,False
55.58841013908386,robot_triangle,0,11,0,-2.4972765178534417,-20.970923171121417,1.0,0.0,0.0,0.912331163512216,0.40945310852947037,1.0,1.0,1.0,0.0,0.0,1.0,1.0,0,0,False,0.3,0.0,0.0,-0.2,0.15,0.0,-0.2,-0.15,0.0,,0,0,,,,,,False
55.878050088882446,robot_triangle,0,11,0,-2.5260378103688534,-20.839020608965548,1.0,0.0,0.0,0.9122757909593865,0.4095764656684095,1.0,1.0,1.0,0.0,0.0,1.0,1.0,0,0,False,0.3,0.0,0.0,-0.2,0.15,0.0,-0.2,-0.15,0.0,,0,0,,,,,,False
56.11685085296631,robot_triangle,0,11,0,-2.5482067833479745,-20.704564668217298,1.0,0.0,0.0,0.9121399319017294,0.4098789389933428,1.0,1.0,1.0,0.0,0.0,1.0,1.0,0,0,False,0.3,0.0,0.0,-0.2,0.15,0.0,-0.2,-0.15,0.0,,0,0,,,,,,False
56.345112800598145,robot_triangle,0,11,0,-2.570959449538782,-20.57015484180863,1.0,0.0,0.0,0.9117931530059905,0.4106497852567251,1.0,1.0,1.0,0.0,0.0,1.0,1.0,0,0,False,0.3,0.0,0.0,-0.2,0.15,0.0,-0.2,-0.15,0.0,,0,0,,,,,,False
56.56971049308777,robot_triangle,0,11,0,-2.5920876510624273,-20.425701533989987,1.0,0.0,0.0,0.911219392612987,0.41192137420388736,1.0,1.0,1.0,0.0,0.0,1.0,1.0,0,0,False,0.3,0.0,0.0,-0.2,0.15,0.0,-0.2,-0.15,0.0,,0,0,,,,,,False
56.87898302078247,robot_triangle,0,11,0,-2.6204807940967676,-20.281031771112826,1.0,0.0,0.0,0.9108086017832218,0.4128288881821288,1.0,1.0,1.0,0.0,0.0,1.0,1.0,0,0,False,0.3,0.0,0.0,-0.2,0.15,0.0,-0.2,-0.15,0.0,,0,0,,,,,,False
57.22975707054138,robot_triangle,0,11,0,-2.6426783104839138,-20.1358878857939,1.0,0.0,0.0,0.9103763261865335,0.41378127642404305,1.0,1.0,1.0,0.0,0.0,1.0,1.0,0,0,False,0.3,0.0,0.0,-0.2,0.15,0.0,-0.2,-0.15,0.0,,0,0,,,,,,False
57.435302734375,robot_triangle,0,11,0,-2.6702770139165115,-19.97905224387376,1.0,0.0,0.0,0.9098867654360868,0.41485669102023126,1.0,1.0,1.0,0.0,0.0,1.0,1.0,0,0,False,0.3,0.0,0.0,-0.2,0.15,0.0,-0.2,-0.15,0.0,,0,0,,,,,,False
57.60508465766907,robot_triangle,0,11,0,-2.6982399314163095,-19.82367132611545,1.0,0.0,0.0,0.9091408299343535,0.41648883700079503,1.0,1.0,1.0,0.0,0.0,1.0,1.0,0,0,False,0.3,0.0,0.0,-0.2,0.15,0.0,-0.2,-0.15,0.0,,0,0,,,,,,False
57.902578592300415,robot_triangle,0,11,0,-2.720703876657264,-19.667705929311776,1.0,0.0,0.0,0.9088796317365853,0.4170585270850714,1.0,1.0,1.0,0.0,0.0,1.0,1.0,0,0,False,0.3,0.0,0.0,-0.2,0.15,0.0,-0.2,-0.15,0.0,,0,0,,,,,,False
58.18455696105957,robot_triangle,0,11,0,-2.754376434632223,-19.501776292448003,1.0,0.0,0.0,0.9102964417305267,0.4139569883124837,1.0,1.0,1.0,0.0,0.0,1.0,1.0,0,0,False,0.3,0.0,0.0,-0.2,0.15,0.0,-0.2,-0.15,0.0,,0,0,,,,,,False
58.315126180648804,robot_triangle,0,11,0,-2.7828583125101827,-19.3560195709881,1.0,0.0,0.0,0.9122015548163221,0.40974177647719096,1.0,1.0,1.0,0.0,0.0,1.0,1.0,0,0,False,0.3,0.0,0.0,-0.2,0.15,0.0,-0.2,-0.15,0.0,,0,0,,,,,,False
58.58390498161316,robot_triangle,0,11,0,-2.817471358944937,-19.21110364639997,1.0,0.0,0.0,0.9140875361096213,0.40551692483673435,1.0,1.0,1.0,0.0,0.0,1.0,1.0,0,0,False,0.3,0.0,0.0,-0.2,0.15,0.0,-0.2,-0.15,0.0,,0,0,,,,,,False
58.82105588912964,robot_triangle,0,11,0,-2.8463915564809477,-19.05652097733458,1.0,0.0,0.0,0.9151663716939873,0.4030763105423868,1.0,1.0,1.0,0.0,0.0,1.0,1.0,0,0,False,0.3,0.0,0.0,-0.2,0.15,0.0,-0.2,-0.15,0.0,,0,0,,,,,,False
59.12075209617615,robot_triangle,0,11,0,-2.8813132209228116,-18.900131615246007,1.0,0.0,0.0,0.9158319604391785,0.40156172656035216,1.0,1.0,1.0,0.0,0.0,1.0,1.0,0,0,False,0.3,0.0,0.0,-0.2,0.15,0.0,-0.2,-0.15,0.0,,0,0,,,,,,False
59.33705258369446,robot_triangle,0,11,0,-2.916666995531467,-18.74432211908589,1.0,0.0,0.0,0.9163098530150993,0.40047004041182305,1.0,1.0,1.0,0.0,0.0,1.0,1.0,0,0,False,0.3,0.0,0.0,-0.2,0.15,0.0,-0.2,-0.15,0.0,,0,0,,,,,,False
59.58522653579712,robot_triangle,0,11,0,-2.95259245101316,-18.59831004714858,1.0,0.0,0.0,0.9169633761575376,0.39897138592356496,1.0,1.0,1.0,0.0,0.0,1.0,1.0,0,0,False,0.3,0.0,0.0,-0.2,0.15,0.0,-0.2,-0.15,0.0,,0,0,,,,,,False
59.84152793884277,robot_triangle,0,11,0,-2.988061553553793,-18.43341847251845,1.0,0.0,0.0,0.9173941770393955,0.3979798034250108,1.0,1.0,1.0,0.0,0.0,1.0,1.0,0,0,False,0.3,0.0,0.0,-0.2,0.15,0.0,-0.2,-0.15,0.0,,0,0,,,,,,False
60.08726668357849,robot_triangle,0,11,0,-3.023592953805086,-18.27680946036153,1.0,0.0,0.0,0.9177785144914228,0.3970926823021512,1.0,1.0,1.0,0.0,0.0,1.0,1.0,0,0,False,0.3,0.0,0.0,-0.2,0.15,0.0,-0.2,-0.15,0.0,,0,0,,,,,,False
60.31521034240723,robot_triangle,0,11,0,-3.059600727368802,-18.120206005967397,1.0,0.0,0.0,0.9179770709448579,0.3966334544885231,1.0,1.0,1.0,0.0,0.0,1.0,1.0,0,0,False,0.3,0.0,0.0,-0.2,0.15,0.0,-0.2,-0.15,0.0,,0,0,,,,,,False
60.58772802352905,robot_triangle,0,11,0,-3.0888459879411347,-17.964010705928803,1.0,0.0,0.0,0.917930646864019,0.3967408821230849,1.0,1.0,1.0,0.0,0.0,1.0,1.0,0,0,False,0.3,0.0,0.0,-0.2,0.15,0.0,-0.2,-0.15,0.0,,0,0,,,,,,False
60.85055613517761,robot_triangle,0,11,0,-3.123916975983472,-17.798318148345817,1.0,0.0,0.0,0.9179104587974467,0.39678758754560456,1.0,1.0,1.0,0.0,0.0,1.0,1.0,0,0,False,0.3,0.0,0.0,-0.2,0.15,0.0,-0.2,-0.15,0.0,,0,0,,,,,,False
61.1117787361145,robot_triangle,0,11,0,-3.159302180514459,-17.641483742276566,1.0,0.0,0.0,0.9180624049771514,0.3964358971732616,1.0,1.0,1.0,0.0,0.0,1.0,1.0,0,0,False,0.3,0.0,0.0,-0.2,0.15,0.0,-0.2,-0.15,0.0,,0,0,,,,,,False
61.3119683265686,robot_triangle,0,11,0,-3.1949251102673175,-17.485966813821484,1.0,0.0,0.0,0.9182234349833633,0.3960627771545226,1.0,1.0,1.0,0.0,0.0,1.0,1.0,0,0,False,0.3,0.0,0.0,-0.2,0.15,0.0,-0.2,-0.15,0.0,,0,0,,,,,,False
61.611299991607666,robot_triangle,0,11,0,-3.2307410401274943,-17.31966845621395,1.0,0.0,0.0,0.9182551507409196,0.39598923992675733,1.0,1.0,1.0,0.0,0.0,1.0,1.0,0,0,False,0.3,0.0,0.0,-0.2,0.15,0.0,-0.2,-0.15,0.0,,0,0,,,,,,False
61.85129404067993,robot_triangle,0,11,0,-3.266312256489513,-17.163281541590667,1.0,0.0,0.0,0.9183424841761816,0.3957866619242235,1.0,1.0,1.0,0.0,0.0,1.0,1.0,0,0,False,0.3,0.0,0.0,-0.2,0.15,0.0,-0.2,-0.15,0.0,,0,0,,,,,,False
62.1575345993042,robot_triangle,0,11,0,-3.302373950864715,-17.00750945017818,1.0,0.0,0.0,0.9182294055963515,0.3960489347267216,1.0,1.0,1.0,0.0,0.0,1.0,1.0,0,0,False,0.3,0.0,0.0,-0.2,0.15,0.0,-0.2,-0.15,0.0,,0,0,,,,,,False
62.4751238822937,robot_triangle,0,11,0,-3.3318500679313896,-16.84080615329026,1.0,0.0,0.0,0.9158457075198585,0.4015303724719337,1.0,1.0,1.0,0.0,0.0,1.0,1.0,0,0,False,0.3,0.0,0.0,-0.2,0.15,0.0,-0.2,-0.15,0.0,,0,0,,,,,,False
62.68794894218445,robot_triangle,0,11,0,-3.360609325890772,-16.672600557912006,1.0,0.0,0.0,0.9108557271585345,0.4127249014809955,1.0,1.0,1.0,0.0,0.0,1.0,1.0,0,0,False,0.3,0.0,0.0,-0.2,0.15,0.0,-0.2,-0.15,0.0,,0,0,,,,,,False
62.901822328567505,robot_triangle,0,11,0,-3.3822039320923674,-16.494725896639103,1.0,0.0,0.0,0.9060284283307858,0.4232168321988695,1.0,1.0,1.0,0.0,0.0,1.0,1.0,0,0,False,0.3,0.0,0.0,-0.2,0.15,0.0,-0.2,-0.15,0.0,,0,0,,,,,,False
63.10431265830994,robot_triangle,0,11,0,-3.402600331437745,-16.327619124409033,1.0,0.0,0.0,0.902329122136648,0.4310477413745562,1.0,1.0,1.0,0.0,0.0,1.0,1.0,0,0,False,0.3,0.0,0.0,-0.2,0.15,0.0,-0.2,-0.15,0.0,,0,0,,,,,,False
63.39299726486206,robot_triangle,0,11,0,-3.4173306290160137,-16.160786586556817,1.0,0.0,0.0,0.9003799533217248,0.4351045157848499,1.0,1.0,1.0,0.0,0.0,1.0,1.0,0,0,False,0.3,0.0,0.0,-0.2,0.15,0.0,-0.2,-0.15,0.0,,0,0,,,,,,False
63.608890771865845,robot_triangle,0,11,0,-3.4376749665462962,-15.994498753121125,1.0,0.0,0.0,0.898921757309744,0.4381092035499389,1.0,1.0,1.0,0.0,0.0,1.0,1.0,0,0,False,0.3,0.0,0.0,-0.2,0.15,0.0,-0.2,-0.15,0.0,,0,0,,,,,,False
